$GPGGA,232847.727,1723.6149,S,06608.8126,W,1,03,5.6,2602.8,M,28.8,M,,0000*6D
$GPGSA,A,2,09,23,16,,,,,,,,,,6.4,5.6,3.2*3C
$GPRMC,232847.727,A,1723.6149,S,06608.8126,W,0.34,185.45,150416,,,A*6E
$GPGGA,232848.727,1723.6147,S,06608.8126,W,1,03,5.6,2602.8,M,28.8,M,,0000*6C
$GPGSA,A,2,09,23,16,,,,,,,,,,6.4,5.6,3.2*3C
$GPRMC,232848.727,A,1723.6147,S,06608.8126,W,0.21,185.45,150416,,,A*6B
$GPGGA,232849.727,1723.6144,S,06608.8124,W,1,03,5.6,2602.9,M,28.8,M,,0000*6D
$GPGSA,A,2,09,23,16,,,,,,,,,,6.4,5.6,3.2*3C
$GPRMC,232849.727,A,1723.6144,S,06608.8124,W,0.18,185.45,150416,,,A*61
$GPGGA,232850.727,1723.6127,S,06608.8127,W,1,03,5.6,2602.9,M,28.8,M,,0000*63
$GPGSA,A,2,09,23,16,,,,,,,,,,6.4,5.6,3.2*3C
$GPRMC,232850.727,A,1723.6127,S,06608.8127,W,0.24,185.45,150416,,,A*60
$GPGGA,232851.727,1723.6112,S,06608.8134,W,1,03,5.6,2603.0,M,28.8,M,,0000*6E
$GPGSA,A,2,09,23,16,,,,,,,,,,6.4,5.6,3.2*3C
$GPGSV,3,1,12,09,44,205,27,23,38,159,23,16,13,108,23,51,39,288,*74
$GPGSV,3,2,12,07,61,325,,03,48,097,,06,34,233,,30,31,326,*7B
$GPGSV,3,3,12,01,25,015,,22,24,070,,11,10,015,,17,10,303,*7B
$GPRMC,232851.727,A,1723.6112,S,06608.8134,W,0.24,185.45,150416,,,A*65
$GPGGA,232852.727,1723.6100,S,06608.8136,W,1,03,5.6,2603.0,M,28.8,M,,0000*6C
$GPGSA,A,2,09,23,16,,,,,,,,,,6.4,5.6,3.2*3C
$GPRMC,232852.727,A,1723.6100,S,06608.8136,W,0.32,185.45,150416,,,A*60
$GPGGA,232853.727,1723.6096,S,06608.8137,W,1,03,5.6,2603.0,M,28.8,M,,0000*62
$GPGSA,A,2,09,23,16,,,,,,,,,,6.4,5.6,3.2*3C
$GPRMC,232853.727,A,1723.6096,S,06608.8137,W,0.53,185.45,150416,,,A*69
$GPGGA,232854.727,1723.6093,S,06608.8139,W,1,03,5.6,2603.1,M,28.8,M,,0000*6F
$GPGSA,A,2,09,23,16,,,,,,,,,,6.4,5.6,3.2*3C
$GPRMC,232854.727,A,1723.6093,S,06608.8139,W,0.65,185.45,150416,,,A*60
$GPGGA,232855.727,1723.6094,S,06608.8137,W,1,03,5.6,2603.1,M,28.8,M,,0000*67
$GPGSA,A,2,09,23,16,,,,,,,,,,6.4,5.6,3.2*3C
$GPRMC,232855.727,A,1723.6094,S,06608.8137,W,0.48,185.45,150416,,,A*67
$GPGGA,232856.727,1723.6084,S,06608.8140,W,1,03,5.6,2603.2,M,28.8,M,,0000*66
$GPGSA,A,2,09,23,16,,,,,,,,,,6.4,5.6,3.2*3C
$GPGSV,3,1,12,09,44,205,27,23,38,159,23,16,13,108,23,51,39,288,*74
$GPGSV,3,2,12,07,61,325,,03,48,097,,06,34,233,,30,31,326,*7B
$GPGSV,3,3,12,01,25,015,,22,24,070,,11,10,015,,17,10,303,*7B
$GPRMC,232856.727,A,1723.6084,S,06608.8140,W,0.79,185.45,150416,,,A*67
$GPGGA,232857.727,1723.6075,S,06608.8139,W,1,03,5.6,2603.2,M,28.8,M,,0000*67
$GPGSA,A,2,09,23,16,,,,,,,,,,6.4,5.6,3.2*3C
$GPRMC,232857.727,A,1723.6075,S,06608.8139,W,1.13,185.45,150416,,,A*6B
$GPGGA,232858.727,1723.6061,S,06608.8140,W,1,03,5.6,2603.2,M,28.8,M,,0000*63
$GPGSA,A,2,09,23,16,,,,,,,,,,6.4,5.6,3.2*3C
$GPRMC,232858.727,A,1723.6061,S,06608.8140,W,1.06,185.45,150416,,,A*6B
$GPGGA,232859.727,1723.6057,S,06608.8140,W,1,03,5.6,2603.3,M,28.8,M,,0000*66
$GPGSA,A,2,09,23,16,,,,,,,,,,6.4,5.6,3.2*3C
$GPRMC,232859.727,A,1723.6057,S,06608.8140,W,0.97,185.45,150416,,,A*66
$GPGGA,232900.727,1723.6052,S,06608.8140,W,1,03,5.6,2603.3,M,28.8,M,,0000*6E
$GPGSA,A,2,09,23,16,,,,,,,,,,6.4,5.6,3.2*3C
$GPRMC,232900.727,A,1723.6052,S,06608.8140,W,0.57,185.45,150416,,,A*62
$GPGGA,232901.727,1723.6041,S,06608.8143,W,1,03,5.6,2603.3,M,28.8,M,,0000*6E
$GPGSA,A,2,09,23,16,,,,,,,,,,6.4,5.6,3.2*3C
$GPGSV,3,1,12,09,44,205,26,23,38,159,23,16,13,108,23,51,39,288,*75
$GPGSV,3,2,12,07,61,325,,03,48,097,,06,34,233,,30,31,326,*7B
$GPGSV,3,3,12,01,25,015,,22,24,070,,11,10,015,,17,10,303,*7B
$GPRMC,232901.727,A,1723.6041,S,06608.8143,W,0.46,185.45,150416,,,A*62
$GPGGA,232902.727,1723.6023,S,06608.8146,W,1,03,5.6,2603.4,M,28.8,M,,0000*6B
$GPGSA,A,2,09,23,16,,,,,,,,,,6.4,5.6,3.2*3C
$GPRMC,232902.727,A,1723.6023,S,06608.8146,W,1.18,136.31,150416,,,A*61
$GPGGA,232903.727,1723.6009,S,06608.8147,W,1,03,5.6,2603.4,M,28.8,M,,0000*63
$GPGSA,A,2,09,23,16,,,,,,,,,,6.4,5.6,3.2*3C
$GPRMC,232903.727,A,1723.6009,S,06608.8147,W,1.49,89.97,150416,,,A*54
$GPGGA,232904.727,1723.6002,S,06608.8149,W,1,03,5.6,2603.4,M,28.8,M,,0000*61
$GPGSA,A,2,09,23,16,,,,,,,,,,6.4,5.6,3.2*3C
$GPRMC,232904.727,A,1723.6002,S,06608.8149,W,1.50,64.28,150416,,,A*59
$GPGGA,232905.727,1723.6004,S,06608.8149,W,1,03,5.6,2603.5,M,28.8,M,,0000*67
$GPGSA,A,2,09,23,16,,,,,,,,,,6.4,5.6,3.2*3C
$GPRMC,232905.727,A,1723.6004,S,06608.8149,W,0.97,64.28,150416,,,A*54
$GPGGA,232906.727,1723.6016,S,06608.8146,W,1,03,5.6,2603.5,M,28.8,M,,0000*68
$GPGSA,A,2,09,23,16,,,,,,,,,,6.4,5.6,3.2*3C
$GPGSV,3,1,12,09,44,205,26,23,38,159,23,16,13,108,22,51,39,288,*74
$GPGSV,3,2,12,07,61,325,,03,48,097,,06,34,233,,30,31,326,*7B
$GPGSV,3,3,12,01,25,015,,22,24,070,,11,10,015,,17,10,303,*7B
$GPRMC,232906.727,A,1723.6016,S,06608.8146,W,0.42,64.28,150416,,,A*53
$GPGGA,232907.727,1723.6027,S,06608.8145,W,1,03,5.6,2603.5,M,28.8,M,,0000*68
$GPGSA,A,2,09,23,16,,,,,,,,,,6.4,5.6,3.2*3C
$GPRMC,232907.727,A,1723.6027,S,06608.8145,W,0.58,64.28,150416,,,A*58
$GPGGA,232908.727,1723.6028,S,06608.8147,W,1,03,5.6,2603.6,M,28.8,M,,0000*69
$GPGSA,A,2,09,23,16,,,,,,,,,,6.4,5.6,3.2*3C
$GPRMC,232908.727,A,1723.6028,S,06608.8147,W,0.86,64.28,150416,,,A*59
$GPGGA,232909.727,1723.6022,S,06608.8147,W,1,03,5.6,2603.6,M,28.8,M,,0000*62
$GPGSA,A,2,09,23,16,,,,,,,,,,6.4,5.6,3.2*3C
$GPRMC,232909.727,A,1723.6022,S,06608.8147,W,0.24,64.28,150416,,,A*5A
$GPGGA,232910.727,1723.6027,S,06608.8143,W,1,03,5.6,2603.7,M,28.8,M,,0000*6A
$GPGSA,A,2,09,23,16,,,,,,,,,,6.4,5.6,3.2*3C
$GPRMC,232910.727,A,1723.6027,S,06608.8143,W,0.33,64.28,150416,,,A*55
$GPGGA,232911.727,1723.6030,S,06608.8143,W,1,03,5.6,2603.7,M,28.8,M,,0000*6D
$GPGSA,A,2,09,23,16,,,,,,,,,,6.4,5.6,3.2*3C
$GPGSV,3,1,12,09,44,205,26,23,38,159,22,16,13,108,21,51,39,288,*76
$GPGSV,3,2,12,07,61,325,,03,48,097,,06,34,233,,30,31,326,*7B
$GPGSV,3,3,12,01,25,015,,22,24,070,,11,10,015,,17,10,303,*7B
$GPRMC,232911.727,A,1723.6030,S,06608.8143,W,0.36,64.28,150416,,,A*57
$GPGGA,232912.727,1723.6028,S,06608.8142,W,1,03,5.6,2603.7,M,28.8,M,,0000*66
$GPGSA,A,2,09,23,16,,,,,,,,,,6.4,5.6,3.2*3C
$GPRMC,232912.727,A,1723.6028,S,06608.8142,W,0.66,64.28,150416,,,A*59
$GPGGA,232913.727,1723.6023,S,06608.8145,W,1,03,5.6,2603.8,M,28.8,M,,0000*64
$GPGSA,A,2,09,23,16,,,,,,,,,,6.4,5.6,3.2*3C
$GPRMC,232913.727,A,1723.6023,S,06608.8145,W,0.23,64.28,150416,,,A*55
$GPGGA,232914.727,1723.6009,S,06608.8150,W,1,03,5.6,2603.8,M,28.8,M,,0000*6F
$GPGSA,A,2,09,23,16,,,,,,,,,,6.4,5.6,3.2*3C
$GPRMC,232914.727,A,1723.6009,S,06608.8150,W,0.43,64.28,150416,,,A*58
$GPGGA,232915.727,1723.6005,S,06608.8150,W,1,03,5.6,2603.8,M,28.8,M,,0000*62
$GPGSA,A,2,09,23,16,,,,,,,,,,6.4,5.6,3.2*3C
$GPRMC,232915.727,A,1723.6005,S,06608.8150,W,0.71,64.28,150416,,,A*54
$GPGGA,232916.727,1723.6005,S,06608.8151,W,1,03,5.6,2603.8,M,28.8,M,,0000*60
$GPGSA,A,2,09,23,16,,,,,,,,,,6.4,5.6,3.2*3C
$GPGSV,3,1,12,09,44,203,25,23,37,157,22,16,13,109,21,51,39,288,*73
$GPGSV,3,2,12,07,63,324,,03,48,095,,06,35,234,,30,32,325,*7C
$GPGSV,3,3,12,01,24,015,,22,23,068,,17,09,304,,11,09,016,*70
$GPRMC,232916.727,A,1723.6005,S,06608.8151,W,0.53,64.28,150416,,,A*56
$GPGGA,232917.727,1723.5999,S,06608.8154,W,1,03,5.6,2603.9,M,28.8,M,,0000*6A
$GPGSA,A,2,09,23,16,,,,,,,,,,6.4,5.6,3.2*3C
$GPRMC,232917.727,A,1723.5999,S,06608.8154,W,0.99,64.28,150416,,,A*5B
$GPGGA,232918.727,1723.5994,S,06608.8154,W,1,03,5.6,2603.9,M,28.8,M,,0000*68
$GPGSA,A,2,09,23,16,,,,,,,,,,6.4,5.6,3.2*3C
$GPRMC,232918.727,A,1723.5994,S,06608.8154,W,0.76,64.28,150416,,,A*58
$GPGGA,232919.727,1723.6000,S,06608.8153,W,1,03,5.6,2603.9,M,28.8,M,,0000*69
$GPGSA,A,2,09,23,16,,,,,,,,,,6.4,5.6,3.2*3C
$GPRMC,232919.727,A,1723.6000,S,06608.8153,W,0.41,64.28,150416,,,A*5D
$GPGGA,232920.727,1723.6005,S,06608.8153,W,1,03,5.6,2604.0,M,28.8,M,,0000*68
$GPGSA,A,2,09,23,16,,,,,,,,,,6.4,5.6,3.2*3C
$GPRMC,232920.727,A,1723.6005,S,06608.8153,W,0.63,64.28,150416,,,A*52
$GPGGA,232921.727,1723.6000,S,06608.8153,W,1,03,5.6,2604.0,M,28.8,M,,0000*6C
$GPGSA,A,2,09,23,16,,,,,,,,,,6.4,5.6,3.2*3C
$GPGSV,3,1,12,09,44,203,25,23,37,157,21,16,13,109,20,51,39,288,*71
$GPGSV,3,2,12,07,63,324,,03,48,095,,06,35,234,,30,32,325,*7C
$GPGSV,3,3,12,01,24,015,,22,23,068,,17,09,304,,11,09,016,*70
$GPRMC,232921.727,A,1723.6000,S,06608.8153,W,0.47,64.28,150416,,,A*50
$GPGGA,232922.727,1723.5999,S,06608.8151,W,1,03,5.6,2604.0,M,28.8,M,,0000*67
$GPGSA,A,2,09,23,16,,,,,,,,,,6.4,5.6,3.2*3C
$GPRMC,232922.727,A,1723.5999,S,06608.8151,W,0.50,64.28,150416,,,A*5D
$GPGGA,232923.727,1723.6009,S,06608.8148,W,1,03,5.6,2604.1,M,28.8,M,,0000*6C
$GPGSA,A,2,09,23,16,,,,,,,,,,6.4,5.6,3.2*3C
$GPRMC,232923.727,A,1723.6009,S,06608.8148,W,0.14,64.28,150416,,,A*57
$GPGGA,232924.727,1723.6000,S,06608.8151,W,1,03,5.6,2604.1,M,28.8,M,,0000*6A
$GPGSA,A,2,09,23,16,,,,,,,,,,6.4,5.6,3.2*3C
$GPRMC,232924.727,A,1723.6000,S,06608.8151,W,0.49,64.28,150416,,,A*59
$GPGGA,232925.727,1723.6010,S,06608.8150,W,1,03,5.6,2604.1,M,28.8,M,,0000*6B
$GPGSA,A,2,09,23,16,,,,,,,,,,6.4,5.6,3.2*3C
$GPRMC,232925.727,A,1723.6010,S,06608.8150,W,0.51,64.28,150416,,,A*51
$GPGGA,232926.727,1723.6009,S,06608.8151,W,1,03,5.6,2604.1,M,28.8,M,,0000*61
$GPGSA,A,2,09,23,16,,,,,,,,,,6.4,5.6,3.2*3C
$GPGSV,3,1,12,09,44,203,25,23,37,157,21,16,13,109,20,33,29,076,*77
$GPGSV,3,2,12,07,63,324,,03,48,095,,06,35,234,,30,32,325,*7C
$GPGSV,3,3,12,01,24,015,,22,23,068,,17,09,304,,11,09,016,*70
$GPRMC,232926.727,A,1723.6009,S,06608.8151,W,0.43,64.28,150416,,,A*58
$GPGGA,232927.727,1723.6011,S,06608.8154,W,1,03,5.6,2604.2,M,28.8,M,,0000*6F
$GPGSA,A,2,09,23,16,,,,,,,,,,6.4,5.6,3.2*3C
$GPRMC,232927.727,A,1723.6011,S,06608.8154,W,1.17,87.52,150416,,,A*55
$GPGGA,232928.727,1723.6021,S,06608.8150,W,1,03,5.6,2604.2,M,28.8,M,,0000*67
$GPGSA,A,2,09,23,16,,,,,,,,,,6.4,5.6,3.2*3C
$GPRMC,232928.727,A,1723.6021,S,06608.8150,W,1.17,112.15,150416,,,A*63
$GPGGA,232929.727,1723.6023,S,06608.8150,W,1,03,5.6,2604.2,M,28.8,M,,0000*64
$GPGSA,A,2,09,23,16,,,,,,,,,,6.4,5.6,3.2*3C
$GPRMC,232929.727,A,1723.6023,S,06608.8150,W,1.36,133.04,150416,,,A*60
$GPGGA,232930.727,1723.6031,S,06608.8148,W,1,03,5.6,2604.3,M,28.8,M,,0000*67
$GPGSA,A,2,09,23,16,,,,,,,,,,6.4,5.6,3.2*3C
$GPRMC,232930.727,A,1723.6031,S,06608.8148,W,1.89,149.75,150416,,,A*6D
$GPGGA,232931.727,1723.6029,S,06608.8146,W,1,03,5.6,2604.3,M,28.8,M,,0000*61
$GPGSA,A,2,09,23,16,,,,,,,,,,6.4,5.6,3.2*3C
$GPGSV,3,1,12,09,44,203,25,23,37,157,21,16,13,109,20,33,29,076,*77
$GPGSV,3,2,12,07,63,324,,03,48,095,,06,35,234,,30,32,325,*7C
$GPGSV,3,3,12,01,24,015,,22,23,068,,17,09,304,,11,09,016,*70
$GPRMC,232931.727,A,1723.6029,S,06608.8146,W,1.33,150.81,150416,,,A*69
$GPGGA,232932.727,1723.6026,S,06608.8143,W,1,03,5.6,2604.3,M,28.8,M,,0000*68
$GPGSA,A,2,09,23,16,,,,,,,,,,6.5,5.6,3.2*3D
$GPRMC,232932.727,A,1723.6026,S,06608.8143,W,1.16,150.81,150416,,,A*67
$GPGGA,232933.727,1723.6025,S,06608.8143,W,1,03,5.6,2604.3,M,28.8,M,,0000*6A
$GPGSA,A,2,09,23,16,,,,,,,,,,6.5,5.6,3.2*3D
$GPRMC,232933.727,A,1723.6025,S,06608.8143,W,0.69,150.81,150416,,,A*6C
$GPGGA,232934.727,1723.6027,S,06608.8142,W,1,03,5.6,2604.4,M,28.8,M,,0000*69
$GPGSA,A,2,09,23,16,,,,,,,,,,6.5,5.6,3.2*3D
$GPRMC,232934.727,A,1723.6027,S,06608.8142,W,0.61,150.81,150416,,,A*60
$GPGGA,232935.727,1723.6025,S,06608.8140,W,1,03,5.6,2604.4,M,28.8,M,,0000*68
$GPGSA,A,2,09,23,16,,,,,,,,,,6.5,5.6,3.2*3D
$GPRMC,232935.727,A,1723.6025,S,06608.8140,W,0.37,150.81,150416,,,A*62
$GPGGA,232936.727,1723.6011,S,06608.8143,W,1,03,5.6,2604.4,M,28.8,M,,0000*6F
$GPGSA,A,2,09,23,16,,,,,,,,,,6.5,5.6,3.2*3D
$GPGSV,3,1,12,09,44,203,25,23,37,157,21,16,13,109,20,33,29,076,*77
$GPGSV,3,2,12,07,63,324,,03,48,095,,06,35,234,,30,32,325,*7C
$GPGSV,3,3,12,01,24,015,,22,23,068,,17,09,304,,11,09,016,*70
$GPRMC,232936.727,A,1723.6011,S,06608.8143,W,0.18,150.81,150416,,,A*68
$GPGGA,232937.727,1723.6010,S,06608.8143,W,1,03,5.6,2604.4,M,28.8,M,,0000*6F
$GPGSA,A,2,09,23,16,,,,,,,,,,6.5,5.6,3.2*3D
$GPRMC,232937.727,A,1723.6010,S,06608.8143,W,0.25,150.81,150416,,,A*66
$GPGGA,232938.727,1723.6003,S,06608.8144,W,1,03,5.6,2604.5,M,28.8,M,,0000*64
$GPGSA,A,2,09,23,16,,,,,,,,,,6.5,5.6,3.2*3D
$GPRMC,232938.727,A,1723.6003,S,06608.8144,W,0.35,150.81,150416,,,A*6D
$GPGGA,232939.727,1723.6005,S,06608.8145,W,1,03,5.6,2604.5,M,28.8,M,,0000*62
$GPGSA,A,2,09,23,16,,,,,,,,,,6.5,5.6,3.2*3D
$GPRMC,232939.727,A,1723.6005,S,06608.8145,W,0.35,150.81,150416,,,A*6B
$GPGGA,232940.727,1723.6003,S,06608.8145,W,1,03,5.6,2604.5,M,28.8,M,,0000*6A
$GPGSA,A,2,09,23,16,,,,,,,,,,6.5,5.6,3.2*3D
$GPRMC,232940.727,A,1723.6003,S,06608.8145,W,0.28,150.81,150416,,,A*6F
$GPGGA,232941.727,1723.6009,S,06608.8142,W,1,03,5.6,2604.5,M,28.8,M,,0000*66
$GPGSA,A,2,09,23,16,,,,,,,,,,6.5,5.6,3.2*3D
$GPGSV,3,1,12,09,44,203,25,23,37,157,21,16,13,109,20,33,29,076,*77
$GPGSV,3,2,12,07,63,324,,03,48,095,,06,35,234,,30,32,325,*7C
$GPGSV,3,3,12,01,24,015,,22,23,068,,17,09,304,,11,09,016,*70
$GPRMC,232941.727,A,1723.6009,S,06608.8142,W,0.62,150.81,150416,,,A*6D
$GPGGA,232942.727,1723.6018,S,06608.8140,W,1,03,5.6,2604.5,M,28.8,M,,0000*67
$GPGSA,A,2,09,23,16,,,,,,,,,,6.5,5.6,3.2*3D
$GPRMC,232942.727,A,1723.6018,S,06608.8140,W,1.13,150.81,150416,,,A*6B
$GPGGA,232943.727,1723.6018,S,06608.8140,W,1,03,5.6,2604.6,M,28.8,M,,0000*65
$GPGSA,A,2,09,23,16,,,,,,,,,,6.5,5.6,3.2*3D
$GPRMC,232943.727,A,1723.6018,S,06608.8140,W,0.98,150.81,150416,,,A*68
$GPGGA,232944.727,1723.6032,S,06608.8135,W,1,03,5.6,2604.6,M,28.8,M,,0000*68
$GPGSA,A,2,09,23,16,,,,,,,,,,6.5,5.6,3.2*3D
$GPRMC,232944.727,A,1723.6032,S,06608.8135,W,1.19,152.12,150416,,,A*65
$GPGGA,232945.727,1723.6039,S,06608.8134,W,1,03,5.6,2604.6,M,28.8,M,,0000*63
$GPGSA,A,2,09,23,16,,,,,,,,,,6.5,5.6,3.2*3D
$GPRMC,232945.727,A,1723.6039,S,06608.8134,W,1.46,158.34,150416,,,A*6A
$GPGGA,232946.727,1723.6036,S,06608.8131,W,1,03,5.6,2604.6,M,28.8,M,,0000*6A
$GPGSA,A,2,09,23,16,,,,,,,,,,6.5,5.6,3.2*3D
$GPGSV,3,1,12,09,44,203,25,23,37,157,21,16,13,109,20,33,29,076,*77
$GPGSV,3,2,12,07,63,324,,03,48,095,,06,35,234,,30,32,325,*7C
$GPGSV,3,3,12,01,24,015,,22,23,068,,17,09,304,,11,09,016,*70
$GPRMC,232946.727,A,1723.6036,S,06608.8131,W,1.22,157.26,150416,,,A*6D
$GPGGA,232947.727,1723.6031,S,06608.8132,W,1,03,5.6,2604.7,M,28.8,M,,0000*6E
$GPGSA,A,2,09,23,16,,,,,,,,,,6.5,5.6,3.2*3D
$GPRMC,232947.727,A,1723.6031,S,06608.8132,W,0.69,157.26,150416,,,A*66
$GPGGA,232948.727,1723.6045,S,06608.8128,W,1,03,5.6,2604.7,M,28.8,M,,0000*69
$GPGSA,A,2,09,23,16,,,,,,,,,,6.5,5.6,3.2*3D
$GPRMC,232948.727,A,1723.6045,S,06608.8128,W,1.28,160.56,150416,,,A*66
$GPGGA,232949.727,1723.6041,S,06608.8130,W,1,03,5.7,2604.7,M,28.8,M,,0000*64
$GPGSA,A,2,09,23,16,,,,,,,,,,6.5,5.7,3.2*3C
$GPRMC,232949.727,A,1723.6041,S,06608.8130,W,1.08,160.56,150416,,,A*68
$GPGGA,232950.727,1723.6035,S,06608.8131,W,1,03,5.7,2604.7,M,28.8,M,,0000*6E
$GPGSA,A,2,09,23,16,,,,,,,,,,6.5,5.7,3.2*3C
$GPRMC,232950.727,A,1723.6035,S,06608.8131,W,0.67,160.56,150416,,,A*6A
$GPGGA,232951.727,1723.6037,S,06608.8131,W,1,03,5.7,2604.8,M,28.8,M,,0000*62
$GPGSA,A,2,09,23,16,,,,,,,,,,6.5,5.7,3.2*3C
$GPGSV,3,1,12,09,44,203,25,23,37,157,20,16,13,109,19,33,29,076,*7C
$GPGSV,3,2,12,07,63,324,,03,48,095,,06,35,234,,30,32,325,*7C
$GPGSV,3,3,12,01,24,015,,22,23,068,,17,09,304,,11,09,016,*70
$GPRMC,232951.727,A,1723.6037,S,06608.8131,W,0.92,160.56,150416,,,A*63
$GPGGA,232952.727,1723.6031,S,06608.8133,W,1,03,5.7,2604.8,M,28.8,M,,0000*65
$GPGSA,A,2,09,23,16,,,,,,,,,,6.5,5.7,3.2*3C
$GPRMC,232952.727,A,1723.6031,S,06608.8133,W,0.45,160.56,150416,,,A*6E
$GPGGA,232953.727,1723.6035,S,06608.8131,W,1,03,5.7,2604.8,M,28.8,M,,0000*62
$GPGSA,A,2,09,23,16,,,,,,,,,,6.5,5.7,3.2*3C
$GPRMC,232953.727,A,1723.6035,S,06608.8131,W,0.45,160.56,150416,,,A*69
$GPGGA,232954.727,1723.6030,S,06608.8134,W,1,03,5.7,2604.8,M,28.8,M,,0000*65
$GPGSA,A,2,09,23,16,,,,,,,,,,6.5,5.7,3.2*3C
$GPRMC,232954.727,A,1723.6030,S,06608.8134,W,0.57,160.56,150416,,,A*6D
$GPGGA,232955.727,1723.6034,S,06608.8134,W,1,03,5.7,2604.8,M,28.8,M,,0000*60
$GPGSA,A,2,09,23,16,,,,,,,,,,6.5,5.7,3.2*3C
$GPRMC,232955.727,A,1723.6034,S,06608.8134,W,0.66,160.56,150416,,,A*6A
$GPGGA,232956.727,1723.6034,S,06608.8135,W,1,03,5.7,2604.9,M,28.8,M,,0000*63
$GPGSA,A,2,09,23,16,,,,,,,,,,6.5,5.7,3.2*3C
$GPGSV,3,1,12,09,44,203,25,23,37,157,21,16,13,109,19,48,15,277,*7D
$GPGSV,3,2,12,07,63,324,,03,48,095,,06,35,234,,30,32,325,*7C
$GPGSV,3,3,12,01,24,015,,22,23,068,,17,09,304,,11,09,016,*70
$GPRMC,232956.727,A,1723.6034,S,06608.8135,W,0.28,160.56,150416,,,A*62
$GPGGA,232957.727,1723.6030,S,06608.8137,W,1,03,5.7,2604.9,M,28.8,M,,0000*64
$GPGSA,A,2,09,23,16,,,,,,,,,,6.5,5.7,3.2*3C
$GPRMC,232957.727,A,1723.6030,S,06608.8137,W,0.37,160.56,150416,,,A*6B
$GPGGA,232958.727,1723.6022,S,06608.8138,W,1,03,5.7,2604.9,M,28.8,M,,0000*67
$GPGSA,A,2,09,23,16,,,,,,,,,,6.5,5.7,3.2*3C
$GPRMC,232958.727,A,1723.6022,S,06608.8138,W,0.73,160.56,150416,,,A*68
$GPGGA,232959.727,1723.6024,S,06608.8141,W,1,03,5.7,2604.9,M,28.8,M,,0000*6E
$GPGSA,A,2,09,23,16,,,,,,,,,,6.5,5.7,3.2*3C
$GPRMC,232959.727,A,1723.6024,S,06608.8141,W,0.81,160.56,150416,,,A*6C
$GPGGA,233000.727,1723.6035,S,06608.8140,W,1,03,5.7,2604.9,M,28.8,M,,0000*6B
$GPGSA,A,2,09,23,16,,,,,,,,,,6.5,5.7,3.2*3C
$GPRMC,233000.727,A,1723.6035,S,06608.8140,W,0.66,160.56,150416,,,A*60
$GPGGA,233001.727,1723.6041,S,06608.8140,W,1,03,5.7,2605.0,M,28.8,M,,0000*61
$GPGSA,A,2,09,23,16,,,,,,,,,,6.5,5.7,3.2*3C
$GPGSV,3,1,12,09,44,203,24,23,37,157,20,16,13,109,18,48,15,277,*7C
$GPGSV,3,2,12,07,63,324,,03,48,095,,06,35,234,,30,32,325,*7C
$GPGSV,3,3,12,01,24,015,,22,23,068,,17,09,304,,11,09,016,*70
$GPRMC,233001.727,A,1723.6041,S,06608.8140,W,0.75,160.56,150416,,,A*60
$GPGGA,233002.727,1723.6025,S,06608.8146,W,1,03,5.7,2605.0,M,28.8,M,,0000*66
$GPGSA,A,2,09,23,16,,,,,,,,,,6.5,5.7,3.2*3C
$GPRMC,233002.727,A,1723.6025,S,06608.8146,W,0.66,160.56,150416,,,A*65
$GPGGA,233003.727,1723.6015,S,06608.8148,W,1,03,5.7,2605.0,M,28.8,M,,0000*6A
$GPGSA,A,2,09,23,16,,,,,,,,,,6.5,5.7,3.2*3C
$GPRMC,233003.727,A,1723.6015,S,06608.8148,W,0.66,160.56,150416,,,A*69
$GPGGA,233004.727,1723.6009,S,06608.8150,W,1,03,5.7,2605.0,M,28.8,M,,0000*69
$GPGSA,A,2,09,23,16,,,,,,,,,,6.5,5.7,3.2*3C
$GPRMC,233004.727,A,1723.6009,S,06608.8150,W,0.52,160.56,150416,,,A*6D
$GPGGA,233005.727,1723.5997,S,06608.8153,W,1,03,5.7,2605.0,M,28.8,M,,0000*66
$GPGSA,A,2,09,23,16,,,,,,,,,,6.5,5.7,3.2*3C
$GPRMC,233005.727,A,1723.5997,S,06608.8153,W,0.43,160.56,150416,,,A*62
$GPGGA,233006.727,1723.5992,S,06608.8150,W,1,03,5.7,2605.1,M,28.8,M,,0000*62
$GPGSA,A,2,09,23,16,,,,,,,,,,6.5,5.7,3.2*3C
$GPGSV,3,1,12,09,44,203,24,23,37,157,20,16,13,109,18,48,15,277,*7C
$GPGSV,3,2,12,07,63,324,,03,48,095,,06,35,234,,30,32,325,*7C
$GPGSV,3,3,12,01,24,015,,22,23,068,,17,09,304,,11,09,016,*70
$GPRMC,233006.727,A,1723.5992,S,06608.8150,W,0.67,160.56,150416,,,A*61
$GPGGA,233007.727,1723.5978,S,06608.8145,W,1,03,5.7,2605.1,M,28.8,M,,0000*63
$GPGSA,A,2,09,23,16,,,,,,,,,,6.5,5.7,3.2*3C
$GPRMC,233007.727,A,1723.5978,S,06608.8145,W,1.68,127.21,150416,,,A*6D
$GPGGA,233008.727,1723.5967,S,06608.8142,W,1,03,5.7,2605.1,M,28.8,M,,0000*65
$GPGSA,A,2,09,23,16,,,,,,,,,,6.5,5.7,3.2*3C
$GPRMC,233008.727,A,1723.5967,S,06608.8142,W,2.06,95.21,150416,,,A*58
$GPGGA,233009.727,1723.5967,S,06608.8139,W,1,03,5.7,2605.1,M,28.8,M,,0000*68
$GPGSA,A,2,09,23,16,,,,,,,,,,6.5,5.7,3.2*3C
$GPRMC,233009.727,A,1723.5967,S,06608.8139,W,1.64,84.37,150416,,,A*55
$GPGGA,233010.727,1723.5958,S,06608.8139,W,1,03,5.7,2605.1,M,28.8,M,,0000*6C
$GPGSA,A,2,09,23,16,,,,,,,,,,6.5,5.7,3.2*3C
$GPRMC,233010.727,A,1723.5958,S,06608.8139,W,1.71,68.24,150416,,,A*55
$GPGGA,233011.727,1723.5963,S,06608.8134,W,1,03,5.7,2605.1,M,28.8,M,,0000*68
$GPGSA,A,2,09,23,16,,,,,,,,,,6.5,5.7,3.2*3C
$GPGSV,3,1,12,09,44,203,24,23,37,157,21,16,13,109,17,48,15,277,*72
$GPGSV,3,2,12,07,63,324,,03,48,095,,06,35,234,,30,32,325,*7C
$GPGSV,3,3,12,01,24,015,,22,23,068,,17,09,304,,11,09,016,*70
$GPRMC,233011.727,A,1723.5963,S,06608.8134,W,1.32,62.27,150416,,,A*5F
$GPGGA,233012.727,1723.5962,S,06608.8132,W,1,03,5.7,2605.2,M,28.8,M,,0000*6F
$GPGSA,A,2,09,23,16,,,,,,,,,,6.5,5.7,3.2*3C
$GPRMC,233012.727,A,1723.5962,S,06608.8132,W,0.93,62.27,150416,,,A*51
$GPGGA,233013.727,1723.5970,S,06608.8125,W,1,03,5.7,2605.2,M,28.8,M,,0000*6B
$GPGSA,A,2,09,23,16,,,,,,,,,,6.5,5.7,3.2*3C
$GPRMC,233013.727,A,1723.5970,S,06608.8125,W,0.82,62.27,150416,,,A*55
$GPGGA,233014.727,1723.5972,S,06608.8126,W,1,03,5.7,2605.2,M,28.8,M,,0000*6D
$GPGSA,A,2,09,23,16,,,,,,,,,,6.5,5.7,3.2*3C
$GPRMC,233014.727,A,1723.5972,S,06608.8126,W,0.14,62.27,150416,,,A*5C
$GPGGA,233015.727,1723.5978,S,06608.8125,W,1,03,5.7,2605.2,M,28.8,M,,0000*65
$GPGSA,A,2,09,23,16,,,,,,,,,,6.5,5.7,3.2*3C
$GPRMC,233015.727,A,1723.5978,S,06608.8125,W,0.38,62.27,150416,,,A*5A
$GPGGA,233016.727,1723.5972,S,06608.8128,W,1,03,5.7,2605.2,M,28.8,M,,0000*61
$GPGSA,A,2,09,23,16,,,,,,,,,,6.5,5.7,3.2*3C
$GPGSV,3,1,12,09,44,203,24,23,37,157,20,16,13,109,17,48,15,277,*73
$GPGSV,3,2,12,07,63,324,,03,48,095,,06,35,234,,30,32,325,*7C
$GPGSV,3,3,12,01,24,015,,22,23,068,,17,09,304,,11,09,016,*70
$GPRMC,233016.727,A,1723.5972,S,06608.8128,W,0.71,62.27,150416,,,A*53
$GPGGA,233017.727,1723.5979,S,06608.8127,W,1,03,5.7,2605.3,M,28.8,M,,0000*65
$GPGSA,A,2,09,23,16,,,,,,,,,,6.5,5.7,3.2*3C
$GPRMC,233017.727,A,1723.5979,S,06608.8127,W,0.51,62.27,150416,,,A*54
$GPGGA,233018.727,1723.5986,S,06608.8128,W,1,03,5.7,2605.3,M,28.8,M,,0000*65
$GPGSA,A,2,09,23,16,,,,,,,,,,6.5,5.7,3.2*3C
$GPRMC,233018.727,A,1723.5986,S,06608.8128,W,0.70,62.27,150416,,,A*57
$GPGGA,233019.727,1723.5986,S,06608.8130,W,1,03,5.7,2605.3,M,28.8,M,,0000*6D
$GPGSA,A,2,09,23,16,,,,,,,,,,6.5,5.7,3.2*3C
$GPRMC,233019.727,A,1723.5986,S,06608.8130,W,0.53,62.27,150416,,,A*5E
$GPGGA,233020.727,1723.5973,S,06608.8132,W,1,03,5.7,2605.3,M,28.8,M,,0000*6F
$GPGSA,A,2,09,23,16,,,,,,,,,,6.5,5.7,3.2*3C
$GPRMC,233020.727,A,1723.5973,S,06608.8132,W,0.49,62.27,150416,,,A*57
$GPGGA,233021.727,1723.5973,S,06608.8136,W,1,03,5.7,2605.3,M,28.8,M,,0000*6A
$GPGSA,A,2,09,23,16,,,,,,,,,,6.5,5.7,3.2*3C
$GPGSV,3,1,12,09,44,203,24,23,37,157,21,16,13,109,17,48,15,277,*72
$GPGSV,3,2,12,07,63,324,,03,48,095,,06,35,234,,30,32,325,*7C
$GPGSV,3,3,12,01,24,015,,22,23,068,,17,09,304,,11,09,016,*70
$GPRMC,233021.727,A,1723.5973,S,06608.8136,W,0.47,62.27,150416,,,A*5C
$GPGGA,233022.727,1723.5985,S,06608.8136,W,1,03,5.7,2605.3,M,28.8,M,,0000*60
$GPGSA,A,2,09,23,16,,,,,,,,,,6.5,5.7,3.2*3C
$GPRMC,233022.727,A,1723.5985,S,06608.8136,W,0.82,62.27,150416,,,A*5F
$GPGGA,233023.727,1723.5996,S,06608.8134,W,1,03,5.7,2605.4,M,28.8,M,,0000*66
$GPGSA,A,2,09,23,16,,,,,,,,,,6.5,5.7,3.2*3C
$GPRMC,233023.727,A,1723.5996,S,06608.8134,W,1.00,62.27,150416,,,A*55
$GPGGA,233024.727,1723.6008,S,06608.8133,W,1,03,5.7,2605.4,M,28.8,M,,0000*6B
$GPGSA,A,2,09,23,16,,,,,,,,,,6.5,5.7,3.2*3C
$GPRMC,233024.727,A,1723.6008,S,06608.8133,W,1.47,104.40,150416,,,A*6B
$GPGGA,233025.727,1723.6009,S,06608.8135,W,1,03,5.7,2605.4,M,28.8,M,,0000*6D
$GPGSA,A,2,09,23,16,,,,,,,,,,6.5,5.7,3.2*3C
$GPRMC,233025.727,A,1723.6009,S,06608.8135,W,1.38,124.43,150416,,,A*64
$GPGGA,233026.727,1723.6003,S,06608.8141,W,1,03,5.7,2605.4,M,28.8,M,,0000*67
$GPGSA,A,2,09,23,16,,,,,,,,,,6.5,5.7,3.2*3C
$GPGSV,3,1,12,09,44,203,25,23,37,157,21,16,13,109,18,46,47,299,*75
$GPGSV,3,2,12,07,63,324,,03,48,095,,06,35,234,,30,32,325,*7C
$GPGSV,3,3,12,01,24,015,,22,23,068,,17,09,304,,11,09,016,*70
$GPRMC,233026.727,A,1723.6003,S,06608.8141,W,1.28,133.83,150416,,,A*65
$GPGGA,233027.727,1723.5994,S,06608.8148,W,1,03,5.7,2605.4,M,28.8,M,,0000*6B
$GPGSA,A,2,09,23,16,,,,,,,,,,6.5,5.7,3.2*3C
$GPRMC,233027.727,A,1723.5994,S,06608.8148,W,1.14,133.83,150416,,,A*66
$GPGGA,233028.727,1723.5996,S,06608.8147,W,1,03,5.7,2605.4,M,28.8,M,,0000*69
$GPGSA,A,2,09,23,16,,,,,,,,,,6.5,5.7,3.2*3C
$GPRMC,233028.727,A,1723.5996,S,06608.8147,W,0.72,133.83,150416,,,A*65
$GPGGA,233029.727,1723.5985,S,06608.8148,W,1,03,5.7,2605.5,M,28.8,M,,0000*64
$GPGSA,A,2,09,23,16,,,,,,,,,,6.5,5.7,3.2*3C
$GPRMC,233029.727,A,1723.5985,S,06608.8148,W,0.03,133.83,150416,,,A*6F
$GPGGA,233030.727,1723.5986,S,06608.8146,W,1,03,5.7,2605.5,M,28.8,M,,0000*61
$GPGSA,A,2,09,23,16,,,,,,,,,,6.5,5.7,3.2*3C
$GPRMC,233030.727,A,1723.5986,S,06608.8146,W,0.55,133.83,150416,,,A*69
$GPGGA,233031.727,1723.5992,S,06608.8140,W,1,03,5.7,2605.5,M,28.8,M,,0000*63
$GPGSA,A,2,09,23,16,,,,,,,,,,6.5,5.7,3.2*3C
$GPGSV,3,1,12,09,44,203,25,23,37,157,21,16,13,109,18,46,47,299,*75
$GPGSV,3,2,12,07,63,324,,03,48,095,,06,35,234,,30,32,325,*7C
$GPGSV,3,3,12,01,24,015,,22,23,068,,17,09,304,,11,09,016,*70
$GPRMC,233031.727,A,1723.5992,S,06608.8140,W,1.11,133.83,150416,,,A*6A
$GPGGA,233032.727,1723.5992,S,06608.8136,W,1,03,5.7,2605.5,M,28.8,M,,0000*61
$GPGSA,A,2,09,23,16,,,,,,,,,,6.5,5.7,3.2*3C
$GPRMC,233032.727,A,1723.5992,S,06608.8136,W,1.58,131.27,150416,,,A*69
$GPGGA,233033.727,1723.5985,S,06608.8137,W,1,03,5.7,2605.5,M,28.8,M,,0000*67
$GPGSA,A,2,09,23,16,,,,,,,,,,6.5,5.7,3.2*3C
$GPRMC,233033.727,A,1723.5985,S,06608.8137,W,0.87,131.27,150416,,,A*6C
$GPGGA,233034.727,1723.5983,S,06608.8137,W,1,03,5.7,2605.5,M,28.8,M,,0000*66
$GPGSA,A,2,09,23,16,,,,,,,,,,6.5,5.7,3.2*3C
$GPRMC,233034.727,A,1723.5983,S,06608.8137,W,0.53,131.27,150416,,,A*64
$GPGGA,233035.727,1723.5987,S,06608.8137,W,1,03,5.7,2605.5,M,28.8,M,,0000*63
$GPGSA,A,2,09,23,16,,,,,,,,,,6.5,5.7,3.2*3C
$GPRMC,233035.727,A,1723.5987,S,06608.8137,W,0.76,131.27,150416,,,A*66
$GPGGA,233036.727,1723.6004,S,06608.8133,W,1,03,5.7,2605.6,M,28.8,M,,0000*66
$GPGSA,A,2,09,23,16,,,,,,,,,,6.5,5.7,3.2*3C
$GPGSV,3,1,12,09,44,203,25,23,37,157,21,16,13,109,18,46,47,299,*75
$GPGSV,3,2,12,07,63,324,,03,48,095,,06,35,234,,30,32,325,*7C
$GPGSV,3,3,12,01,24,015,,22,23,068,,17,09,304,,11,09,016,*70
$GPRMC,233036.727,A,1723.6004,S,06608.8133,W,1.45,136.93,150416,,,A*69
$GPGGA,233037.727,1723.6005,S,06608.8130,W,1,03,5.7,2605.6,M,28.8,M,,0000*65
$GPGSA,A,2,09,23,16,,,,,,,,,,6.5,5.7,3.2*3C
$GPRMC,233037.727,A,1723.6005,S,06608.8130,W,1.42,138.21,150416,,,A*6A
$GPGGA,233038.727,1723.6008,S,06608.8129,W,1,03,5.7,2605.6,M,28.8,M,,0000*6F
$GPGSA,A,2,09,23,16,,,,,,,,,,6.5,5.7,3.2*3C
$GPRMC,233038.727,A,1723.6008,S,06608.8129,W,1.56,144.41,150416,,,A*68
$GPGGA,233039.727,1723.5991,S,06608.8133,W,1,03,5.7,2605.6,M,28.8,M,,0000*6F
$GPGSA,A,2,09,23,16,,,,,,,,,,6.6,5.7,3.2*3F
$GPRMC,233039.727,A,1723.5991,S,06608.8133,W,0.90,144.41,150416,,,A*63
$GPGGA,233040.727,1723.5997,S,06608.8130,W,1,03,5.7,2605.6,M,28.8,M,,0000*64
$GPGSA,A,2,09,23,16,,,,,,,,,,6.6,5.7,3.2*3F
$GPRMC,233040.727,A,1723.5997,S,06608.8130,W,0.80,144.41,150416,,,A*69
$GPGGA,233041.727,1723.5998,S,06608.8129,W,1,03,5.7,2605.6,M,28.8,M,,0000*62
$GPGSA,A,2,09,23,16,,,,,,,,,,6.6,5.7,3.2*3F
$GPGSV,3,1,12,09,44,203,24,23,37,157,21,16,13,109,19,46,47,299,*75
$GPGSV,3,2,12,07,63,324,,03,48,095,,06,35,234,,30,32,325,*7C
$GPGSV,3,3,12,01,24,015,,22,23,068,,17,09,304,,11,09,016,*70
$GPRMC,233041.727,A,1723.5998,S,06608.8129,W,0.94,144.41,150416,,,A*6A
$GPGGA,233042.727,1723.5998,S,06608.8131,W,1,03,5.7,2605.6,M,28.8,M,,0000*68
$GPGSA,A,2,09,23,16,,,,,,,,,,6.6,5.7,3.2*3F
$GPRMC,233042.727,A,1723.5998,S,06608.8131,W,1.31,151.99,150416,,,A*6F
$GPGGA,233043.727,1723.5991,S,06608.8130,W,1,03,5.7,2605.7,M,28.8,M,,0000*60
$GPGSA,A,2,09,23,16,,,,,,,,,,6.6,5.7,3.2*3F
$GPRMC,233043.727,A,1723.5991,S,06608.8130,W,1.12,151.99,150416,,,A*67
$GPGGA,233044.727,1723.5983,S,06608.8132,W,1,03,5.7,2605.7,M,28.8,M,,0000*66
$GPGSA,A,2,09,23,16,,,,,,,,,,6.6,5.7,3.2*3F
$GPRMC,233044.727,A,1723.5983,S,06608.8132,W,0.65,151.99,150416,,,A*60
$GPGGA,233045.727,1723.5983,S,06608.8132,W,1,03,5.7,2605.7,M,28.8,M,,0000*67
$GPGSA,A,2,09,23,16,,,,,,,,,,6.6,5.7,3.2*3F
$GPRMC,233045.727,A,1723.5983,S,06608.8132,W,0.45,151.99,150416,,,A*63
$GPGGA,233046.727,1723.5990,S,06608.8130,W,1,03,5.7,2605.7,M,28.8,M,,0000*64
$GPGSA,A,2,09,23,16,,,,,,,,,,6.6,5.7,3.2*3F
$GPGSV,3,1,12,09,44,203,25,23,37,157,22,16,13,109,21,46,47,299,*7C
$GPGSV,3,2,12,07,63,324,,03,48,095,,06,35,234,,30,32,325,*7C
$GPGSV,3,3,12,01,24,015,,22,23,068,,17,09,304,,11,09,016,*70
$GPRMC,233046.727,A,1723.5990,S,06608.8130,W,0.92,151.99,150416,,,A*6A
$GPGGA,233047.727,1723.5987,S,06608.8133,W,1,03,5.8,2605.7,M,28.8,M,,0000*6F
$GPGSA,A,2,09,23,16,,,,,,,,,,6.6,5.8,3.2*30
$GPRMC,233047.727,A,1723.5987,S,06608.8133,W,0.67,151.99,150416,,,A*64
$GPGGA,233048.727,1723.5985,S,06608.8137,W,1,03,5.8,2605.7,M,28.8,M,,0000*66
$GPGSA,A,2,09,23,16,,,,,,,,,,6.6,5.8,3.2*30
$GPRMC,233048.727,A,1723.5985,S,06608.8137,W,0.98,151.99,150416,,,A*6D
$GPGGA,233049.727,1723.5985,S,06608.8138,W,1,03,5.8,2605.8,M,28.8,M,,0000*67
$GPGSA,A,2,09,23,16,,,,,,,,,,6.6,5.8,3.2*30
$GPRMC,233049.727,A,1723.5985,S,06608.8138,W,0.47,151.99,150416,,,A*61
$GPGGA,233050.727,1723.5984,S,06608.8137,W,1,03,5.8,2605.8,M,28.8,M,,0000*61
$GPGSA,A,2,09,23,16,,,,,,,,,,6.6,5.8,3.2*30
$GPRMC,233050.727,A,1723.5984,S,06608.8137,W,0.09,151.99,150416,,,A*6D
$GPGGA,233051.727,1723.5983,S,06608.8138,W,1,03,5.8,2605.8,M,28.8,M,,0000*68
$GPGSA,A,2,09,23,16,,,,,,,,,,6.6,5.8,3.2*30
$GPGSV,3,1,12,09,44,203,25,23,37,157,22,16,13,109,22,03,48,095,06*79
$GPGSV,3,2,12,46,47,299,,07,63,324,,06,35,234,,30,32,325,*7C
$GPGSV,3,3,12,01,24,015,,22,23,068,,17,09,304,,11,09,016,*70
$GPRMC,233051.727,A,1723.5983,S,06608.8138,W,0.50,151.99,150416,,,A*68
$GPGGA,233052.727,1723.5983,S,06608.8139,W,1,03,5.8,2605.8,M,28.8,M,,0000*6A
$GPGSA,A,2,09,23,16,,,,,,,,,,6.6,5.8,3.2*30
$GPRMC,233052.727,A,1723.5983,S,06608.8139,W,0.37,151.99,150416,,,A*6B
$GPGGA,233053.727,1723.5976,S,06608.8141,W,1,03,5.8,2605.8,M,28.8,M,,0000*6E
$GPGSA,A,2,09,23,16,,,,,,,,,,6.6,5.8,3.2*30
$GPRMC,233053.727,A,1723.5976,S,06608.8141,W,0.23,151.99,150416,,,A*6A
$GPGGA,233054.727,1723.5984,S,06608.8141,W,1,03,5.8,2605.8,M,28.8,M,,0000*64
$GPGSA,A,2,09,23,16,,,,,,,,,,6.6,5.8,3.2*30
$GPRMC,233054.727,A,1723.5984,S,06608.8141,W,0.81,151.99,150416,,,A*68
$GPGGA,233055.727,1723.5986,S,06608.8142,W,1,03,5.8,2605.8,M,28.8,M,,0000*64
$GPGSA,A,2,09,23,16,,,,,,,,,,6.6,5.8,3.2*30
$GPRMC,233055.727,A,1723.5986,S,06608.8142,W,0.88,151.99,150416,,,A*61
$GPGGA,233056.727,1723.5996,S,06608.8139,W,1,03,5.8,2605.8,M,28.8,M,,0000*6A
$GPGSA,A,2,09,23,16,,,,,,,,,,6.6,5.8,3.2*30
$GPGSV,3,1,12,09,44,203,24,23,37,157,22,16,13,109,21,03,48,095,08*75
$GPGSV,3,2,12,37,00,091,,07,63,324,,06,35,234,,30,32,325,*73
$GPGSV,3,3,12,01,24,015,,22,23,068,,17,09,304,,11,09,016,*70
$GPRMC,233056.727,A,1723.5996,S,06608.8139,W,1.09,151.99,150416,,,A*67
$GPGGA,233057.727,1723.6006,S,06608.8135,W,1,03,5.8,2605.8,M,28.8,M,,0000*64
$GPGSA,A,2,09,23,16,,,,,,,,,,6.6,5.8,3.2*30
$GPRMC,233057.727,A,1723.6006,S,06608.8135,W,1.29,161.02,150416,,,A*6A
$GPGGA,233058.727,1723.6014,S,06608.8135,W,1,03,5.8,2605.9,M,28.8,M,,0000*69
$GPGSA,A,2,09,23,16,,,,,,,,,,6.6,5.8,3.2*30
$GPRMC,233058.727,A,1723.6014,S,06608.8135,W,1.68,169.63,150416,,,A*6C
$GPGGA,233059.727,1723.6011,S,06608.8136,W,1,03,5.8,2605.9,M,28.8,M,,0000*6E
$GPGSA,A,2,09,23,16,,,,,,,,,,6.6,5.8,3.2*30
$GPRMC,233059.727,A,1723.6011,S,06608.8136,W,1.10,169.63,150416,,,A*64
$GPGGA,233100.727,1723.6005,S,06608.8138,W,1,03,5.8,2605.9,M,28.8,M,,0000*68
$GPGSA,A,2,09,23,16,,,,,,,,,,6.6,5.8,3.2*30
$GPRMC,233100.727,A,1723.6005,S,06608.8138,W,0.68,169.63,150416,,,A*6C
$GPGGA,233101.727,1723.6009,S,06608.8139,W,1,04,4.2,2605.9,M,28.8,M,,0000*68
$GPGSA,A,3,03,09,23,16,,,,,,,,,5.8,4.2,4.1*30
$GPGSV,3,1,12,03,48,095,09,09,44,203,23,23,37,157,22,16,13,109,21*73
$GPGSV,3,2,12,37,00,091,,07,63,324,,06,35,234,,30,32,325,*73
$GPGSV,3,3,12,01,24,015,,22,23,068,,17,09,304,,11,09,016,*70
$GPRMC,233101.727,A,1723.6009,S,06608.8139,W,0.61,169.63,150416,,,A*69
$GPGGA,233102.727,1723.6016,S,06608.8138,W,1,04,4.2,2605.9,M,28.8,M,,0000*64
$GPGSA,A,3,03,09,23,16,,,,,,,,,5.8,4.2,4.1*30
$GPRMC,233102.727,A,1723.6016,S,06608.8138,W,0.87,169.63,150416,,,A*6D
$GPGGA,233103.727,1723.6030,S,06608.8134,W,1,04,4.2,2605.8,M,28.8,M,,0000*6C
$GPGSA,A,3,03,09,23,16,,,,,,,,,5.8,4.2,4.1*30
$GPRMC,233103.727,A,1723.6030,S,06608.8134,W,1.53,167.81,150416,,,A*6E
$GPGGA,233104.727,1723.6044,S,06608.8129,W,1,04,4.2,2605.8,M,28.8,M,,0000*64
$GPGSA,A,3,03,09,23,16,,,,,,,,,5.8,4.2,4.1*30
$GPRMC,233104.727,A,1723.6044,S,06608.8129,W,2.22,166.00,150416,,,A*6B
$GPGGA,233105.727,1723.6045,S,06608.8132,W,1,04,4.2,2605.8,M,28.8,M,,0000*6E
$GPGSA,A,3,03,09,23,16,,,,,,,,,5.8,4.2,4.1*30
$GPRMC,233105.727,A,1723.6045,S,06608.8132,W,2.21,171.85,150416,,,A*69
$GPGGA,233106.727,1723.6053,S,06608.8131,W,1,04,4.2,2605.7,M,28.8,M,,0000*66
$GPGSA,A,3,03,09,23,16,,,,,,,,,5.8,4.2,4.1*30
$GPGSV,3,1,12,03,48,095,08,09,44,203,23,23,37,157,22,16,13,109,20*73
$GPGSV,3,2,12,37,00,091,,07,63,324,,06,35,234,,30,32,325,*73
$GPGSV,3,3,12,01,24,015,,22,23,068,,17,09,304,,11,09,016,*70
$GPRMC,233106.727,A,1723.6053,S,06608.8131,W,2.53,173.64,150416,,,A*66
$GPGGA,233107.727,1723.6041,S,06608.8136,W,1,03,5.8,2605.7,M,28.8,M,,0000*6F
$GPGSA,A,2,09,23,16,,,,,,,,,,6.6,5.8,3.2*30
$GPRMC,233107.727,A,1723.6041,S,06608.8136,W,2.09,173.62,150416,,,A*6A
$GPGGA,233108.727,1723.6042,S,06608.8137,W,1,04,4.2,2605.6,M,28.8,M,,0000*6F
$GPGSA,A,3,03,09,23,16,,,,,,,,,5.8,4.2,4.1*30
$GPRMC,233108.727,A,1723.6042,S,06608.8137,W,1.90,173.67,150416,,,A*61
$GPGGA,233109.727,1723.6036,S,06608.8140,W,1,03,5.8,2605.6,M,28.8,M,,0000*61
$GPGSA,A,2,09,23,16,,,,,,,,,,6.6,5.8,3.2*30
$GPRMC,233109.727,A,1723.6036,S,06608.8140,W,1.57,174.74,150416,,,A*6D
$GPGGA,233110.727,1723.6040,S,06608.8138,W,1,03,5.8,2605.6,M,28.8,M,,0000*67
$GPGSA,A,2,09,23,16,,,,,,,,,,6.6,5.8,3.2*30
$GPRMC,233110.727,A,1723.6040,S,06608.8138,W,1.23,174.53,150416,,,A*6D
$GPGGA,233111.727,1723.6034,S,06608.8139,W,1,03,5.8,2605.6,M,28.8,M,,0000*64
$GPGSA,A,2,09,23,16,,,,,,,,,,6.6,5.8,3.2*30
$GPGSV,3,1,12,09,44,203,23,23,37,157,23,16,13,109,19,03,48,095,07*77
$GPGSV,3,2,12,37,00,091,,07,63,324,,06,35,234,,30,32,325,*73
$GPGSV,3,3,12,01,24,015,,22,23,068,,17,09,304,,11,09,016,*70
$GPRMC,233111.727,A,1723.6034,S,06608.8139,W,1.48,172.54,150416,,,A*62
$GPGGA,233112.727,1723.6030,S,06608.8140,W,1,03,5.8,2605.6,M,28.8,M,,0000*6D
$GPGSA,A,2,09,23,16,,,,,,,,,,6.6,5.8,3.2*30
$GPRMC,233112.727,A,1723.6030,S,06608.8140,W,1.06,172.54,150416,,,A*61
$GPGGA,233113.727,1723.6020,S,06608.8144,W,1,03,5.8,2605.6,M,28.8,M,,0000*69
$GPGSA,A,2,09,23,16,,,,,,,,,,6.6,5.8,3.2*30
$GPRMC,233113.727,A,1723.6020,S,06608.8144,W,0.57,172.54,150416,,,A*60
$GPGGA,233114.727,1723.6019,S,06608.8142,W,1,03,5.8,2605.6,M,28.8,M,,0000*62
$GPGSA,A,2,09,23,16,,,,,,,,,,6.6,5.8,3.2*30
$GPRMC,233114.727,A,1723.6019,S,06608.8142,W,0.79,172.54,150416,,,A*67
$GPGGA,233115.727,1723.6009,S,06608.8147,W,1,04,4.2,2605.6,M,28.8,M,,0000*6B
$GPGSA,A,3,03,09,23,16,,,,,,,,,5.8,4.2,4.1*30
$GPRMC,233115.727,A,1723.6009,S,06608.8147,W,0.37,172.54,150416,,,A*68
$GPGGA,233116.727,1723.6011,S,06608.8145,W,1,04,4.2,2605.6,M,28.8,M,,0000*63
$GPGSA,A,3,03,09,23,16,,,,,,,,,5.8,4.2,4.1*30
$GPGSV,3,1,12,03,48,095,08,09,44,203,23,23,37,157,23,16,13,109,19*78
$GPGSV,3,2,12,37,00,091,,07,63,324,,06,35,234,,30,32,325,*73
$GPGSV,3,3,12,01,24,015,,22,23,068,,17,09,304,,11,09,016,*70
$GPRMC,233116.727,A,1723.6011,S,06608.8145,W,0.23,172.54,150416,,,A*65
$GPGGA,233117.727,1723.6004,S,06608.8147,W,1,04,4.2,2605.6,M,28.8,M,,0000*64
$GPGSA,A,3,03,09,23,16,,,,,,,,,5.8,4.2,4.1*30
$GPRMC,233117.727,A,1723.6004,S,06608.8147,W,0.29,172.54,150416,,,A*68
$GPGGA,233118.727,1723.5993,S,06608.8143,W,1,04,4.2,2605.5,M,28.8,M,,0000*68
$GPGSA,A,3,03,09,23,16,,,,,,,,,5.8,4.2,4.1*30
$GPRMC,233118.727,A,1723.5993,S,06608.8143,W,0.34,172.54,150416,,,A*6B
$GPGGA,233119.727,1723.5991,S,06608.8142,W,1,04,4.2,2605.4,M,28.8,M,,0000*6B
$GPGSA,A,3,03,09,23,16,,,,,,,,,5.8,4.2,4.1*30
$GPRMC,233119.727,A,1723.5991,S,06608.8142,W,0.22,172.54,150416,,,A*6E
$GPGGA,233120.727,1723.5985,S,06608.8145,W,1,04,4.2,2605.4,M,28.8,M,,0000*63
$GPGSA,A,3,03,09,23,16,,,,,,,,,5.8,4.2,4.1*30
$GPRMC,233120.727,A,1723.5985,S,06608.8145,W,0.48,172.54,150416,,,A*6A
$GPGGA,233121.727,1723.5984,S,06608.8144,W,1,04,4.2,2605.4,M,28.8,M,,0000*62
$GPGSA,A,3,03,09,23,16,,,,,,,,,5.8,4.2,4.1*30
$GPGSV,3,1,12,03,48,095,12,09,44,203,24,23,37,157,26,16,13,109,23*78
$GPGSV,3,2,12,37,00,091,,07,63,324,,06,35,234,,30,32,325,*73
$GPGSV,3,3,12,01,24,015,,22,23,068,,17,09,304,,11,09,016,*70
$GPRMC,233121.727,A,1723.5984,S,06608.8144,W,0.10,172.54,150416,,,A*66
$GPGGA,233122.727,1723.5982,S,06608.8145,W,1,04,4.2,2605.4,M,28.8,M,,0000*66
$GPGSA,A,3,03,09,23,16,,,,,,,,,5.8,4.2,4.1*30
$GPRMC,233122.727,A,1723.5982,S,06608.8145,W,0.27,172.54,150416,,,A*66
$GPGGA,233123.727,1723.5992,S,06608.8141,W,1,04,4.2,2605.4,M,28.8,M,,0000*62
$GPGSA,A,3,03,09,23,16,,,,,,,,,5.8,4.2,4.1*30
$GPRMC,233123.727,A,1723.5992,S,06608.8141,W,0.42,172.54,150416,,,A*61
$GPGGA,233124.727,1723.5992,S,06608.8145,W,1,04,4.2,2605.3,M,28.8,M,,0000*66
$GPGSA,A,3,03,09,23,16,,,,,,,,,5.8,4.2,4.1*30
$GPRMC,233124.727,A,1723.5992,S,06608.8145,W,0.30,172.54,150416,,,A*67
$GPGGA,233125.727,1723.5990,S,06608.8147,W,1,04,4.2,2605.3,M,28.8,M,,0000*67
$GPGSA,A,3,03,09,23,16,,,,,,,,,5.8,4.2,4.1*30
$GPRMC,233125.727,A,1723.5990,S,06608.8147,W,0.25,172.54,150416,,,A*62
$GPGGA,233126.727,1723.5992,S,06608.8145,W,1,03,5.8,2605.3,M,28.8,M,,0000*68
$GPGSA,A,2,09,23,16,,,,,,,,,,6.6,5.8,3.2*30
$GPGSV,3,1,12,09,44,203,24,23,37,157,25,16,13,109,23,03,48,095,11*78
$GPGSV,3,2,12,39,00,088,,07,63,324,,06,35,234,,30,32,325,*75
$GPGSV,3,3,12,01,24,015,,22,23,068,,17,09,304,,11,09,016,*70
$GPRMC,233126.727,A,1723.5992,S,06608.8145,W,0.15,172.54,150416,,,A*62
$GPGGA,233127.727,1723.5993,S,06608.8145,W,1,03,5.8,2605.4,M,28.8,M,,0000*6F
$GPGSA,A,2,09,23,16,,,,,,,,,,6.6,5.8,3.2*30
$GPRMC,233127.727,A,1723.5993,S,06608.8145,W,0.17,172.54,150416,,,A*60
$GPGGA,233128.727,1723.5995,S,06608.8143,W,1,03,5.8,2605.4,M,28.8,M,,0000*60
$GPGSA,A,2,09,23,16,,,,,,,,,,6.6,5.8,3.2*30
$GPRMC,233128.727,A,1723.5995,S,06608.8143,W,0.17,172.54,150416,,,A*6F
$GPGGA,233129.727,1723.5998,S,06608.8141,W,1,03,5.8,2605.4,M,28.8,M,,0000*6E
$GPGSA,A,2,09,23,16,,,,,,,,,,6.6,5.8,3.2*30
$GPRMC,233129.727,A,1723.5998,S,06608.8141,W,0.62,172.54,150416,,,A*63
$GPGGA,233130.727,1723.5995,S,06608.8145,W,1,03,5.8,2605.4,M,28.8,M,,0000*6F
$GPGSA,A,2,09,23,16,,,,,,,,,,6.6,5.8,3.2*30
$GPRMC,233130.727,A,1723.5995,S,06608.8145,W,0.46,172.54,150416,,,A*64
$GPGGA,233131.727,1723.5997,S,06608.8147,W,1,03,5.8,2605.4,M,28.8,M,,0000*6E
$GPGSA,A,2,09,23,16,,,,,,,,,,6.6,5.8,3.2*30
$GPGSV,3,1,12,09,44,203,25,23,37,157,25,16,13,109,23,03,48,095,06*7F
$GPGSV,3,2,12,39,00,088,,07,63,324,,06,35,234,,30,32,325,*75
$GPGSV,3,3,12,01,24,015,,22,23,068,,17,09,304,,11,09,016,*70
$GPRMC,233131.727,A,1723.5997,S,06608.8147,W,0.73,172.54,150416,,,A*63
$GPGGA,233132.727,1723.6000,S,06608.8147,W,1,03,5.8,2605.4,M,28.8,M,,0000*69
$GPGSA,A,2,09,23,16,,,,,,,,,,6.6,5.8,3.2*30
$GPRMC,233132.727,A,1723.6000,S,06608.8147,W,0.80,172.54,150416,,,A*68
$GPGGA,233133.727,1723.6000,S,06608.8149,W,1,03,5.8,2605.5,M,28.8,M,,0000*67
$GPGSA,A,2,09,23,16,,,,,,,,,,6.6,5.8,3.2*30
$GPRMC,233133.727,A,1723.6000,S,06608.8149,W,1.07,172.54,150416,,,A*69
$GPGGA,233134.727,1723.6005,S,06608.8144,W,1,03,5.8,2605.5,M,28.8,M,,0000*68
$GPGSA,A,2,09,23,16,,,,,,,,,,6.6,5.8,3.2*30
$GPRMC,233134.727,A,1723.6005,S,06608.8144,W,0.32,172.54,150416,,,A*61
$GPGGA,233135.727,1723.6006,S,06608.8145,W,1,03,5.8,2605.5,M,28.8,M,,0000*6B
$GPGSA,A,2,09,23,16,,,,,,,,,,6.6,5.8,3.2*30
$GPRMC,233135.727,A,1723.6006,S,06608.8145,W,0.66,172.54,150416,,,A*63
$GPGGA,233136.727,1723.6011,S,06608.8144,W,1,03,5.8,2605.5,M,28.8,M,,0000*6F
$GPGSA,A,2,09,23,16,,,,,,,,,,6.6,5.8,3.2*30
$GPGSV,3,1,12,09,44,203,25,23,37,157,25,16,13,109,23,03,48,095,06*7F
$GPGSV,3,2,12,39,00,088,,07,63,324,,06,35,234,,30,32,325,*75
$GPGSV,3,3,12,01,24,015,,22,23,068,,17,09,304,,11,09,016,*70
$GPRMC,233136.727,A,1723.6011,S,06608.8144,W,0.40,172.54,150416,,,A*63
$GPGGA,233137.727,1723.6013,S,06608.8141,W,1,03,5.8,2605.6,M,28.8,M,,0000*6A
$GPGSA,A,2,09,23,16,,,,,,,,,,6.6,5.8,3.2*30
$GPRMC,233137.727,A,1723.6013,S,06608.8141,W,0.19,172.54,150416,,,A*69
$GPGGA,233138.727,1723.6023,S,06608.8140,W,1,03,5.8,2605.6,M,28.8,M,,0000*67
$GPGSA,A,2,09,23,16,,,,,,,,,,6.6,5.8,3.2*30
$GPRMC,233138.727,A,1723.6023,S,06608.8140,W,0.82,172.54,150416,,,A*66
$GPGGA,233139.727,1723.6029,S,06608.8139,W,1,03,5.8,2605.6,M,28.8,M,,0000*62
$GPGSA,A,2,09,23,16,,,,,,,,,,6.6,5.8,3.2*30
$GPRMC,233139.727,A,1723.6029,S,06608.8139,W,1.01,172.54,150416,,,A*69
$GPGGA,233140.727,1723.6033,S,06608.8140,W,1,03,5.8,2605.6,M,28.8,M,,0000*69
$GPGSA,A,2,09,23,16,,,,,,,,,,6.6,5.8,3.2*30
$GPRMC,233140.727,A,1723.6033,S,06608.8140,W,1.06,172.54,150416,,,A*65
$GPGGA,233141.727,1723.6032,S,06608.8141,W,1,03,5.8,2605.6,M,28.8,M,,0000*68
$GPGSA,A,2,09,23,16,,,,,,,,,,6.6,5.8,3.2*30
$GPGSV,3,1,12,09,44,203,26,23,37,157,25,16,13,109,23,03,48,095,04*7E
$GPGSV,3,2,12,39,00,088,,07,63,324,,06,35,234,,30,32,325,*75
$GPGSV,3,3,12,01,24,015,,22,23,068,,17,09,304,,11,09,016,*70
$GPRMC,233141.727,A,1723.6032,S,06608.8141,W,1.03,172.54,150416,,,A*61
$GPGGA,233142.727,1723.6027,S,06608.8145,W,1,03,5.8,2605.6,M,28.8,M,,0000*6B
$GPGSA,A,2,09,23,16,,,,,,,,,,6.6,5.8,3.2*30
$GPRMC,233142.727,A,1723.6027,S,06608.8145,W,1.14,172.54,150416,,,A*64
$GPGGA,233143.727,1723.6031,S,06608.8144,W,1,03,5.9,2605.7,M,28.8,M,,0000*6C
$GPGSA,A,2,09,23,16,,,,,,,,,,6.7,5.9,3.2*30
$GPRMC,233143.727,A,1723.6031,S,06608.8144,W,0.67,172.54,150416,,,A*66
$GPGGA,233144.727,1723.6030,S,06608.8144,W,1,03,5.9,2605.7,M,28.8,M,,0000*6A
$GPGSA,A,2,09,23,16,,,,,,,,,,6.7,5.9,3.2*30
$GPRMC,233144.727,A,1723.6030,S,06608.8144,W,0.39,172.54,150416,,,A*6B
$GPGGA,233145.727,1723.6039,S,06608.8139,W,1,03,5.9,2605.7,M,28.8,M,,0000*68
$GPGSA,A,2,09,23,16,,,,,,,,,,6.7,5.9,3.2*30
$GPRMC,233145.727,A,1723.6039,S,06608.8139,W,0.48,172.54,150416,,,A*6F
$GPGGA,233146.727,1723.6038,S,06608.8138,W,1,03,5.9,2605.7,M,28.8,M,,0000*6B
$GPGSA,A,2,09,23,16,,,,,,,,,,6.7,5.9,3.2*30
$GPGSV,3,1,12,09,44,203,27,23,37,157,26,16,13,109,24,03,48,095,06*79
$GPGSV,3,2,12,39,00,088,,07,63,324,,06,35,234,,30,32,325,*75
$GPGSV,3,3,12,01,24,015,,22,23,068,,17,09,304,,11,09,016,*70
$GPRMC,233146.727,A,1723.6038,S,06608.8138,W,0.14,172.54,150416,,,A*65
$GPGGA,233147.727,1723.6030,S,06608.8140,W,1,03,5.9,2605.7,M,28.8,M,,0000*6D
$GPGSA,A,2,09,23,16,,,,,,,,,,6.7,5.9,3.2*30
$GPRMC,233147.727,A,1723.6030,S,06608.8140,W,0.55,172.54,150416,,,A*66
$GPGGA,233148.727,1723.6034,S,06608.8140,W,1,03,5.9,2605.7,M,28.8,M,,0000*66
$GPGSA,A,2,09,23,16,,,,,,,,,,6.7,5.9,3.2*30
$GPRMC,233148.727,A,1723.6034,S,06608.8140,W,0.58,172.54,150416,,,A*60
$GPGGA,233149.727,1723.6031,S,06608.8140,W,1,03,5.9,2605.7,M,28.8,M,,0000*62
$GPGSA,A,2,09,23,16,,,,,,,,,,6.7,5.9,3.2*30
$GPRMC,233149.727,A,1723.6031,S,06608.8140,W,0.16,172.54,150416,,,A*6E
$GPGGA,233150.727,1723.6023,S,06608.8140,W,1,03,5.9,2605.7,M,28.8,M,,0000*69
$GPGSA,A,2,09,23,16,,,,,,,,,,6.7,5.9,3.2*30
$GPRMC,233150.727,A,1723.6023,S,06608.8140,W,0.45,172.54,150416,,,A*63
$GPGGA,233151.727,1723.6017,S,06608.8140,W,1,03,5.9,2605.7,M,28.8,M,,0000*6F
$GPGSA,A,2,09,23,16,,,,,,,,,,6.7,5.9,3.2*30
$GPGSV,3,1,12,09,44,203,27,23,37,157,26,16,13,109,24,03,48,095,06*79
$GPGSV,3,2,12,39,00,088,,07,63,324,,06,35,234,,30,32,325,*75
$GPGSV,3,3,12,01,24,015,,22,23,068,,17,09,304,,11,09,016,*70
$GPRMC,233151.727,A,1723.6017,S,06608.8140,W,0.54,172.54,150416,,,A*65
$GPGGA,233152.727,1723.6011,S,06608.8142,W,1,03,5.9,2605.7,M,28.8,M,,0000*68
$GPGSA,A,2,09,23,16,,,,,,,,,,6.7,5.9,3.2*30
$GPRMC,233152.727,A,1723.6011,S,06608.8142,W,0.63,172.54,150416,,,A*66
$GPGGA,233153.727,1723.6014,S,06608.8141,W,1,03,5.9,2605.7,M,28.8,M,,0000*6F
$GPGSA,A,2,09,23,16,,,,,,,,,,6.7,5.9,3.2*30
$GPRMC,233153.727,A,1723.6014,S,06608.8141,W,0.25,172.54,150416,,,A*63
$GPGGA,233154.727,1723.6012,S,06608.8141,W,1,03,5.9,2605.7,M,28.8,M,,0000*6E
$GPGSA,A,2,09,23,16,,,,,,,,,,6.7,5.9,3.2*30
$GPRMC,233154.727,A,1723.6012,S,06608.8141,W,0.31,172.54,150416,,,A*67
$GPGGA,233155.727,1723.6018,S,06608.8140,W,1,03,5.9,2605.7,M,28.8,M,,0000*64
$GPGSA,A,2,09,23,16,,,,,,,,,,6.7,5.9,3.2*30
$GPRMC,233155.727,A,1723.6018,S,06608.8140,W,0.42,172.54,150416,,,A*69
$GPGGA,233156.727,1723.6009,S,06608.8143,W,1,03,5.9,2605.7,M,28.8,M,,0000*64
$GPGSA,A,2,09,23,16,,,,,,,,,,6.7,5.9,3.2*30
$GPGSV,3,1,12,09,44,203,28,23,37,157,27,16,13,109,24,03,48,095,04*75
$GPGSV,3,2,12,44,00,000,,07,63,324,,06,35,234,,30,32,325,*7F
$GPGSV,3,3,12,01,24,015,,22,23,068,,17,09,304,,11,09,016,*70
$GPRMC,233156.727,A,1723.6009,S,06608.8143,W,0.43,172.54,150416,,,A*68
$GPGGA,233157.727,1723.6000,S,06608.8146,W,1,03,5.9,2605.7,M,28.8,M,,0000*69
$GPGSA,A,2,09,23,16,,,,,,,,,,6.7,5.9,3.2*30
$GPRMC,233157.727,A,1723.6000,S,06608.8146,W,0.27,172.54,150416,,,A*67
$GPGGA,233158.727,1723.5985,S,06608.8148,W,1,03,5.9,2605.7,M,28.8,M,,0000*6F
$GPGSA,A,2,09,23,16,,,,,,,,,,6.7,5.9,3.2*30
$GPRMC,233158.727,A,1723.5985,S,06608.8148,W,0.67,172.54,150416,,,A*65
$GPGGA,233159.727,1723.5981,S,06608.8149,W,1,03,5.9,2605.7,M,28.8,M,,0000*6B
$GPGSA,A,2,09,23,16,,,,,,,,,,6.7,5.9,3.2*30
$GPRMC,233159.727,A,1723.5981,S,06608.8149,W,0.50,172.54,150416,,,A*65
$GPGGA,233200.727,1723.5973,S,06608.8150,W,1,03,5.9,2605.7,M,28.8,M,,0000*61
$GPGSA,A,2,09,23,16,,,,,,,,,,6.7,5.9,3.2*30
$GPRMC,233200.727,A,1723.5973,S,06608.8150,W,0.64,172.54,150416,,,A*68
$GPGGA,233201.727,1723.5968,S,06608.8149,W,1,03,5.9,2605.7,M,28.8,M,,0000*62
$GPGSA,A,2,09,23,16,,,,,,,,,,6.7,5.9,3.2*30
$GPGSV,3,1,12,09,44,203,28,23,37,157,28,16,13,109,25,03,48,095,04*7B
$GPGSV,3,2,12,44,00,000,,07,63,324,,06,35,234,,30,32,325,*7F
$GPGSV,3,3,12,01,24,015,,22,23,068,,17,09,304,,11,09,016,*70
$GPRMC,233201.727,A,1723.5968,S,06608.8149,W,0.71,172.54,150416,,,A*6F
$GPGGA,233202.727,1723.5962,S,06608.8148,W,1,03,5.9,2605.7,M,28.8,M,,0000*6A
$GPGSA,A,2,09,23,16,,,,,,,,,,6.7,5.9,3.2*30
$GPRMC,233202.727,A,1723.5962,S,06608.8148,W,0.76,172.54,150416,,,A*60
$GPGGA,233203.727,1723.5961,S,06608.8149,W,1,03,5.9,2605.8,M,28.8,M,,0000*66
$GPGSA,A,2,09,23,16,,,,,,,,,,6.7,5.9,3.2*30
$GPRMC,233203.727,A,1723.5961,S,06608.8149,W,0.55,172.54,150416,,,A*62
$GPGGA,233204.727,1723.5960,S,06608.8148,W,1,03,5.9,2605.8,M,28.8,M,,0000*61
$GPGSA,A,2,09,23,16,,,,,,,,,,6.7,5.9,3.2*30
$GPRMC,233204.727,A,1723.5960,S,06608.8148,W,0.44,172.54,150416,,,A*65
$GPGGA,233205.727,1723.5954,S,06608.8148,W,1,03,5.9,2605.8,M,28.8,M,,0000*67
$GPGSA,A,2,09,23,16,,,,,,,,,,6.7,5.9,3.2*30
$GPRMC,233205.727,A,1723.5954,S,06608.8148,W,0.49,172.54,150416,,,A*6E
$GPGGA,233206.727,1723.5956,S,06608.8148,W,1,03,5.9,2605.8,M,28.8,M,,0000*66
$GPGSA,A,2,09,23,16,,,,,,,,,,6.7,5.9,3.2*30
$GPGSV,3,1,12,09,44,201,28,23,36,156,27,16,13,110,25,03,48,092,07*7A
$GPGSV,3,2,12,44,00,000,,07,64,322,,06,35,236,,30,33,325,*7D
$GPGSV,3,3,12,01,23,015,,22,22,067,,17,09,305,,11,08,017,*78
$GPRMC,233206.727,A,1723.5956,S,06608.8148,W,0.16,172.54,150416,,,A*65
$GPGGA,233207.727,1723.5955,S,06608.8151,W,1,03,5.9,2605.8,M,28.8,M,,0000*6C
$GPGSA,A,2,09,23,16,,,,,,,,,,6.7,5.9,3.2*30
$GPRMC,233207.727,A,1723.5955,S,06608.8151,W,0.55,172.54,150416,,,A*68
$GPGGA,233208.727,1723.5950,S,06608.8151,W,1,03,5.9,2605.8,M,28.8,M,,0000*66
$GPGSA,A,2,09,23,16,,,,,,,,,,6.7,5.9,3.2*30
$GPRMC,233208.727,A,1723.5950,S,06608.8151,W,0.17,172.54,150416,,,A*64
$GPGGA,233209.727,1723.5943,S,06608.8155,W,1,03,5.9,2605.8,M,28.8,M,,0000*61
$GPGSA,A,2,09,23,16,,,,,,,,,,6.7,5.9,3.2*30
$GPRMC,233209.727,A,1723.5943,S,06608.8155,W,0.60,172.54,150416,,,A*63
$GPGGA,233210.727,1723.5943,S,06608.8154,W,1,03,5.9,2605.8,M,28.8,M,,0000*68
$GPGSA,A,2,09,23,16,,,,,,,,,,6.7,5.9,3.2*30
$GPRMC,233210.727,A,1723.5943,S,06608.8154,W,0.37,172.54,150416,,,A*68
$GPGGA,233211.727,1723.5942,S,06608.8154,W,1,04,4.2,2605.8,M,28.8,M,,0000*65
$GPGSA,A,3,03,09,23,16,,,,,,,,,5.9,4.2,4.2*32
$GPGSV,3,1,12,03,48,092,08,09,44,201,28,23,36,156,28,16,13,110,25*7A
$GPGSV,3,2,12,44,00,000,,07,64,322,,06,35,236,,30,33,325,*7D
$GPGSV,3,3,12,01,23,015,,22,22,067,,17,09,305,,11,08,017,*78
$GPRMC,233211.727,A,1723.5942,S,06608.8154,W,0.27,172.54,150416,,,A*69
$GPGGA,233212.727,1723.5939,S,06608.8156,W,1,04,4.2,2605.7,M,28.8,M,,0000*67
$GPGSA,A,3,03,09,23,16,,,,,,,,,5.9,4.2,4.2*32
$GPRMC,233212.727,A,1723.5939,S,06608.8156,W,0.49,172.54,150416,,,A*6C
$GPGGA,233213.727,1723.5939,S,06608.8156,W,1,04,4.2,2605.7,M,28.8,M,,0000*66
$GPGSA,A,3,03,09,23,16,,,,,,,,,5.9,4.2,4.2*32
$GPRMC,233213.727,A,1723.5939,S,06608.8156,W,0.43,172.54,150416,,,A*67
$GPGGA,233214.727,1723.5935,S,06608.8157,W,1,04,4.2,2605.7,M,28.8,M,,0000*6C
$GPGSA,A,3,03,09,23,16,,,,,,,,,5.9,4.2,4.2*32
$GPRMC,233214.727,A,1723.5935,S,06608.8157,W,0.72,172.54,150416,,,A*6F
$GPGGA,233215.727,1723.5931,S,06608.8159,W,1,04,4.2,2605.7,M,28.8,M,,0000*67
$GPGSA,A,3,03,09,23,16,,,,,,,,,5.9,4.2,4.2*32
$GPRMC,233215.727,A,1723.5931,S,06608.8159,W,0.82,172.54,150416,,,A*6B
$GPGGA,233216.727,1723.5934,S,06608.8158,W,1,04,4.2,2605.6,M,28.8,M,,0000*61
$GPGSA,A,3,03,09,23,16,,,,,,,,,5.9,4.2,4.2*32
$GPGSV,3,1,12,03,48,092,10,09,44,201,28,23,36,156,28,16,13,110,25*73
$GPGSV,3,2,12,44,00,000,,07,64,322,,06,35,236,,30,33,325,*7D
$GPGSV,3,3,12,01,23,015,,22,22,067,,17,09,305,,11,08,017,*78
$GPRMC,233216.727,A,1723.5934,S,06608.8158,W,0.50,172.54,150416,,,A*63
$GPGGA,233217.727,1723.5937,S,06608.8158,W,1,04,4.2,2605.6,M,28.8,M,,0000*63
$GPGSA,A,3,03,09,23,16,,,,,,,,,5.9,4.2,4.2*32
$GPRMC,233217.727,A,1723.5937,S,06608.8158,W,0.35,172.54,150416,,,A*62
$GPGGA,233218.727,1723.5937,S,06608.8161,W,1,04,4.2,2605.5,M,28.8,M,,0000*65
$GPGSA,A,3,03,09,23,16,,,,,,,,,5.9,4.2,4.2*32
$GPRMC,233218.727,A,1723.5937,S,06608.8161,W,0.76,172.54,150416,,,A*60
$GPGGA,233219.727,1723.5939,S,06608.8161,W,1,04,4.2,2605.4,M,28.8,M,,0000*6B
$GPGSA,A,3,03,09,23,16,,,,,,,,,5.9,4.2,4.2*32
$GPRMC,233219.727,A,1723.5939,S,06608.8161,W,0.77,172.54,150416,,,A*6E
$GPGGA,233220.727,1723.5939,S,06608.8161,W,1,04,4.2,2605.3,M,28.8,M,,0000*66
$GPGSA,A,3,03,09,23,16,,,,,,,,,5.9,4.2,4.2*32
$GPRMC,233220.727,A,1723.5939,S,06608.8161,W,0.89,172.54,150416,,,A*65
$GPGGA,233221.727,1723.5940,S,06608.8163,W,1,04,4.2,2605.2,M,28.8,M,,0000*6A
$GPGSA,A,3,03,09,23,16,,,,,,,,,5.9,4.2,4.2*32
$GPGSV,3,1,12,03,48,092,12,09,44,201,28,23,36,156,28,16,13,110,26*72
$GPGSV,3,2,12,44,00,000,,07,64,322,,06,35,236,,30,33,325,*7D
$GPGSV,3,3,12,01,23,015,,22,22,067,,17,09,305,,11,08,017,*78
$GPRMC,233221.727,A,1723.5940,S,06608.8163,W,1.00,172.54,150416,,,A*68
$GPGGA,233222.727,1723.5940,S,06608.8163,W,1,04,4.2,2605.1,M,28.8,M,,0000*6A
$GPGSA,A,3,03,09,23,16,,,,,,,,,5.9,4.2,4.2*32
$GPRMC,233222.727,A,1723.5940,S,06608.8163,W,1.08,172.54,150416,,,A*63
$GPGGA,233223.727,1723.5940,S,06608.8164,W,1,04,4.2,2605.0,M,28.8,M,,0000*6D
$GPGSA,A,3,03,09,23,16,,,,,,,,,5.9,4.2,4.2*32
$GPRMC,233223.727,A,1723.5940,S,06608.8164,W,0.76,172.54,150416,,,A*6D
$GPGGA,233224.727,1723.5942,S,06608.8164,W,1,04,4.2,2604.9,M,28.8,M,,0000*60
$GPGSA,A,3,03,09,23,16,,,,,,,,,5.9,4.2,4.2*32
$GPRMC,233224.727,A,1723.5942,S,06608.8164,W,0.81,172.54,150416,,,A*60
$GPGGA,233225.727,1723.5945,S,06608.8165,W,1,04,4.2,2604.9,M,28.8,M,,0000*67
$GPGSA,A,3,03,09,23,16,,,,,,,,,5.9,4.2,4.2*32
$GPRMC,233225.727,A,1723.5945,S,06608.8165,W,0.50,172.54,150416,,,A*6B
$GPGGA,233226.727,1723.5949,S,06608.8164,W,1,04,4.2,2604.8,M,28.8,M,,0000*68
$GPGSA,A,3,03,09,23,16,,,,,,,,,5.9,4.2,4.2*32
$GPGSV,3,1,12,03,48,092,12,09,44,201,28,23,36,156,28,16,13,110,26*72
$GPGSV,3,2,12,51,39,288,,07,64,322,,06,35,236,,30,33,325,*71
$GPGSV,3,3,12,01,23,015,,22,22,067,,17,09,305,,11,08,017,*78
$GPRMC,233226.727,A,1723.5949,S,06608.8164,W,0.27,172.54,150416,,,A*65
$GPGGA,233227.727,1723.5952,S,06608.8163,W,1,04,4.2,2604.8,M,28.8,M,,0000*64
$GPGSA,A,3,03,09,23,16,,,,,,,,,5.9,4.2,4.2*32
$GPRMC,233227.727,A,1723.5952,S,06608.8163,W,0.07,172.54,150416,,,A*6B
$GPGGA,233228.727,1723.5953,S,06608.8161,W,1,04,4.2,2604.7,M,28.8,M,,0000*67
$GPGSA,A,3,03,09,23,16,,,,,,,,,5.9,4.2,4.2*32
$GPRMC,233228.727,A,1723.5953,S,06608.8161,W,0.50,172.54,150416,,,A*65
$GPGGA,233229.727,1723.5952,S,06608.8160,W,1,04,4.2,2604.7,M,28.8,M,,0000*66
$GPGSA,A,3,03,09,23,16,,,,,,,,,5.9,4.2,4.2*32
$GPRMC,233229.727,A,1723.5952,S,06608.8160,W,0.50,172.54,150416,,,A*64
$GPGGA,233230.727,1723.5954,S,06608.8158,W,1,04,4.2,2604.6,M,28.8,M,,0000*62
$GPGSA,A,3,03,09,23,16,,,,,,,,,5.9,4.2,4.2*32
$GPRMC,233230.727,A,1723.5954,S,06608.8158,W,0.46,172.54,150416,,,A*66
$GPGGA,233231.727,1723.5956,S,06608.8157,W,1,04,4.2,2604.6,M,28.8,M,,0000*6E
$GPGSA,A,3,03,09,23,16,,,,,,,,,5.9,4.2,4.2*32
$GPGSV,3,1,12,03,48,092,12,09,44,201,28,23,36,156,28,16,13,110,26*72
$GPGSV,3,2,12,51,39,288,,07,64,322,,06,35,236,,30,33,325,*71
$GPGSV,3,3,12,01,23,015,,22,22,067,,17,09,305,,11,08,017,*78
$GPRMC,233231.727,A,1723.5956,S,06608.8157,W,0.36,172.54,150416,,,A*6D
$GPGGA,233232.727,1723.5957,S,06608.8157,W,1,04,4.2,2604.5,M,28.8,M,,0000*6F
$GPGSA,A,3,03,09,23,16,,,,,,,,,5.9,4.2,4.2*32
$GPRMC,233232.727,A,1723.5957,S,06608.8157,W,0.26,172.54,150416,,,A*6E
$GPGGA,233233.727,1723.5961,S,06608.8154,W,1,04,4.2,2604.5,M,28.8,M,,0000*68
$GPGSA,A,3,03,09,23,16,,,,,,,,,5.9,4.2,4.2*32
$GPRMC,233233.727,A,1723.5961,S,06608.8154,W,0.85,172.54,150416,,,A*60
$GPGGA,233234.727,1723.5962,S,06608.8155,W,1,04,4.2,2604.5,M,28.8,M,,0000*6D
$GPGSA,A,3,03,09,23,16,,,,,,,,,5.9,4.2,4.2*32
$GPRMC,233234.727,A,1723.5962,S,06608.8155,W,0.60,172.54,150416,,,A*6E
$GPGGA,233235.727,1723.5966,S,06608.8154,W,1,04,4.2,2604.5,M,28.8,M,,0000*69
$GPGSA,A,3,03,09,23,16,,,,,,,,,5.9,4.2,4.2*32
$GPRMC,233235.727,A,1723.5966,S,06608.8154,W,0.66,172.54,150416,,,A*6C
$GPGGA,233236.727,1723.5965,S,06608.8154,W,1,04,4.2,2604.4,M,28.8,M,,0000*68
$GPGSA,A,3,03,09,23,16,,,,,,,,,5.9,4.2,4.2*32
$GPGSV,3,1,12,03,48,092,11,09,44,201,28,23,36,156,28,16,13,110,26*71
$GPGSV,3,2,12,51,39,288,,07,64,322,,06,35,236,,30,33,325,*71
$GPGSV,3,3,12,01,23,015,,22,22,067,,17,09,305,,11,08,017,*78
$GPRMC,233236.727,A,1723.5965,S,06608.8154,W,0.40,172.54,150416,,,A*68
$GPGGA,233237.727,1723.5965,S,06608.8154,W,1,04,4.2,2604.3,M,28.8,M,,0000*6E
$GPGSA,A,3,03,09,23,16,,,,,,,,,5.9,4.2,4.2*32
$GPRMC,233237.727,A,1723.5965,S,06608.8154,W,0.22,172.54,150416,,,A*6D
$GPGGA,233238.727,1723.5965,S,06608.8155,W,1,04,4.2,2604.3,M,28.8,M,,0000*60
$GPGSA,A,3,03,09,23,16,,,,,,,,,5.9,4.2,4.2*32
$GPRMC,233238.727,A,1723.5965,S,06608.8155,W,0.18,172.54,150416,,,A*6A
$GPGGA,233239.727,1723.5965,S,06608.8158,W,1,04,4.2,2604.2,M,28.8,M,,0000*6D
$GPGSA,A,3,03,09,23,16,,,,,,,,,5.9,4.2,4.2*32
$GPRMC,233239.727,A,1723.5965,S,06608.8158,W,0.58,172.54,150416,,,A*62
$GPGGA,233240.727,1723.5965,S,06608.8161,W,1,04,4.2,2604.1,M,28.8,M,,0000*6A
$GPGSA,A,3,03,09,23,16,,,,,,,,,5.9,4.2,4.2*32
$GPRMC,233240.727,A,1723.5965,S,06608.8161,W,0.85,172.54,150416,,,A*66
$GPGGA,233241.727,1723.5962,S,06608.8160,W,1,04,4.2,2604.1,M,28.8,M,,0000*6D
$GPGSA,A,3,03,09,23,16,,,,,,,,,5.9,4.2,4.2*32
$GPGSV,3,1,12,03,48,092,11,09,44,201,28,23,36,156,29,16,13,110,26*70
$GPGSV,3,2,12,51,39,288,,07,64,322,,06,35,236,,30,33,325,*71
$GPGSV,3,3,12,01,23,015,,22,22,067,,17,09,305,,11,08,017,*78
$GPRMC,233241.727,A,1723.5962,S,06608.8160,W,0.58,172.54,150416,,,A*61
$GPGGA,233242.727,1723.5964,S,06608.8161,W,1,04,4.2,2604.0,M,28.8,M,,0000*68
$GPGSA,A,3,03,09,23,16,,,,,,,,,5.9,4.2,4.2*32
$GPRMC,233242.727,A,1723.5964,S,06608.8161,W,0.50,172.54,150416,,,A*6D
$GPGGA,233243.727,1723.5962,S,06608.8163,W,1,04,4.2,2603.9,M,28.8,M,,0000*63
$GPGSA,A,3,03,09,23,16,,,,,,,,,5.9,4.2,4.2*32
$GPRMC,233243.727,A,1723.5962,S,06608.8163,W,0.69,172.54,150416,,,A*62
$GPGGA,233244.727,1723.5964,S,06608.8162,W,1,04,4.2,2603.9,M,28.8,M,,0000*63
$GPGSA,A,3,03,09,23,16,,,,,,,,,5.9,4.2,4.2*32
$GPRMC,233244.727,A,1723.5964,S,06608.8162,W,0.26,172.54,150416,,,A*69
$GPGGA,233245.727,1723.5963,S,06608.8164,W,1,04,4.2,2603.8,M,28.8,M,,0000*62
$GPGSA,A,3,03,09,23,16,,,,,,,,,5.9,4.2,4.2*32
$GPRMC,233245.727,A,1723.5963,S,06608.8164,W,0.50,172.54,150416,,,A*68
$GPGGA,233246.727,1723.5965,S,06608.8165,W,1,04,4.2,2603.8,M,28.8,M,,0000*66
$GPGSA,A,3,03,09,23,16,,,,,,,,,5.9,4.2,4.2*32
$GPGSV,3,1,12,03,48,092,13,09,44,201,28,23,36,155,29,16,13,110,25*72
$GPGSV,3,2,12,51,39,288,,07,64,322,,06,36,236,,30,33,325,*72
$GPGSV,3,3,12,01,22,015,,22,22,067,,17,09,305,,11,08,017,*79
$GPRMC,233246.727,A,1723.5965,S,06608.8165,W,0.62,172.54,150416,,,A*6D
$GPGGA,233247.727,1723.5969,S,06608.8165,W,1,04,4.2,2603.8,M,28.8,M,,0000*6B
$GPGSA,A,3,03,09,23,16,,,,,,,,,5.9,4.2,4.2*32
$GPRMC,233247.727,A,1723.5969,S,06608.8165,W,0.44,172.54,150416,,,A*64
$GPGGA,233248.727,1723.5968,S,06608.8164,W,1,04,4.2,2603.7,M,28.8,M,,0000*6B
$GPGSA,A,3,03,09,23,16,,,,,,,,,5.9,4.2,4.2*32
$GPRMC,233248.727,A,1723.5968,S,06608.8164,W,0.06,172.54,150416,,,A*6D
$GPGGA,233249.727,1723.5971,S,06608.8162,W,1,04,4.2,2603.7,M,28.8,M,,0000*64
$GPGSA,A,3,03,09,23,16,,,,,,,,,6.0,4.2,4.2*38
$GPRMC,233249.727,A,1723.5971,S,06608.8162,W,0.44,172.54,150416,,,A*64
$GPGGA,233250.727,1723.5973,S,06608.8160,W,1,04,4.2,2603.6,M,28.8,M,,0000*6D
$GPGSA,A,3,03,09,23,16,,,,,,,,,6.0,4.2,4.2*38
$GPRMC,233250.727,A,1723.5973,S,06608.8160,W,0.49,172.54,150416,,,A*61
$GPGGA,233251.727,1723.5971,S,06608.8162,W,1,04,4.2,2603.5,M,28.8,M,,0000*6F
$GPGSA,A,3,03,09,23,16,,,,,,,,,6.0,4.2,4.2*38
$GPGSV,3,1,12,03,48,092,14,09,44,201,28,23,36,155,29,16,13,110,25*75
$GPGSV,3,2,12,51,39,288,,07,64,322,,06,36,236,,30,33,325,*72
$GPGSV,3,3,12,01,22,015,,22,22,067,,17,09,305,,11,08,017,*79
$GPRMC,233251.727,A,1723.5971,S,06608.8162,W,0.07,172.54,150416,,,A*6A
$GPGGA,233252.727,1723.5973,S,06608.8161,W,1,04,4.2,2603.4,M,28.8,M,,0000*6C
$GPGSA,A,3,03,09,23,16,,,,,,,,,6.0,4.2,4.2*38
$GPRMC,233252.727,A,1723.5973,S,06608.8161,W,0.14,172.54,150416,,,A*6A
$GPGGA,233253.727,1723.5973,S,06608.8160,W,1,04,4.2,2603.3,M,28.8,M,,0000*6B
$GPGSA,A,3,03,09,23,16,,,,,,,,,6.0,4.2,4.2*38
$GPRMC,233253.727,A,1723.5973,S,06608.8160,W,0.11,172.54,150416,,,A*6F
$GPGGA,233254.727,1723.5975,S,06608.8159,W,1,04,4.2,2603.2,M,28.8,M,,0000*61
$GPGSA,A,3,03,09,23,16,,,,,,,,,6.0,4.2,4.2*38
$GPRMC,233254.727,A,1723.5975,S,06608.8159,W,0.23,172.54,150416,,,A*65
$GPGGA,233255.727,1723.5976,S,06608.8160,W,1,04,4.2,2603.2,M,28.8,M,,0000*69
$GPGSA,A,3,03,09,23,16,,,,,,,,,6.0,4.2,4.2*38
$GPRMC,233255.727,A,1723.5976,S,06608.8160,W,0.08,172.54,150416,,,A*64
$GPGGA,233256.727,1723.5978,S,06608.8158,W,1,04,4.2,2603.0,M,28.8,M,,0000*6D
$GPGSA,A,3,03,09,23,16,,,,,,,,,6.0,4.2,4.2*38
$GPGSV,3,1,12,03,48,092,15,09,44,201,27,23,36,155,29,16,13,110,25*7B
$GPGSV,3,2,12,33,29,076,,07,64,322,,06,36,236,,30,33,325,*74
$GPGSV,3,3,12,01,22,015,,22,22,067,,17,09,305,,11,08,017,*79
$GPRMC,233256.727,A,1723.5978,S,06608.8158,W,0.20,172.54,150416,,,A*68
$GPGGA,233257.727,1723.5978,S,06608.8158,W,1,04,4.2,2602.9,M,28.8,M,,0000*64
$GPGSA,A,3,03,09,23,16,,,,,,,,,6.0,4.2,4.2*38
$GPRMC,233257.727,A,1723.5978,S,06608.8158,W,0.23,172.54,150416,,,A*6A
$GPGGA,233258.727,1723.5977,S,06608.8158,W,1,04,4.2,2602.8,M,28.8,M,,0000*65
$GPGSA,A,3,03,09,23,16,,,,,,,,,6.0,4.2,4.2*38
$GPRMC,233258.727,A,1723.5977,S,06608.8158,W,0.26,172.54,150416,,,A*6F
$GPGGA,233259.727,1723.5975,S,06608.8161,W,1,04,4.2,2602.7,M,28.8,M,,0000*63
$GPGSA,A,3,03,09,23,16,,,,,,,,,6.0,4.2,4.2*38
$GPRMC,233259.727,A,1723.5975,S,06608.8161,W,0.51,172.54,150416,,,A*66
$GPGGA,233300.727,1723.5974,S,06608.8163,W,1,04,4.2,2602.6,M,28.8,M,,0000*6C
$GPGSA,A,3,03,09,23,16,,,,,,,,,6.0,4.2,4.2*38
$GPRMC,233300.727,A,1723.5974,S,06608.8163,W,0.80,172.54,150416,,,A*64
$GPGGA,233301.727,1723.5977,S,06608.8162,W,1,04,4.2,2602.5,M,28.8,M,,0000*6C
$GPGSA,A,3,03,09,23,16,,,,,,,,,6.0,4.2,4.2*38
$GPGSV,3,1,12,03,48,092,15,09,44,201,23,23,36,155,29,16,13,110,14*7D
$GPGSV,3,2,12,33,29,076,,07,64,322,,06,36,236,,30,33,325,*74
$GPGSV,3,3,12,01,22,015,,22,22,067,,17,09,305,,11,08,017,*79
$GPRMC,233301.727,A,1723.5977,S,06608.8162,W,0.29,172.54,150416,,,A*64
$GPGGA,233302.727,1723.5980,S,06608.8160,W,1,04,4.2,2602.5,M,28.8,M,,0000*65
$GPGSA,A,3,03,09,23,16,,,,,,,,,6.0,4.2,4.2*38
$GPRMC,233302.727,A,1723.5980,S,06608.8160,W,0.26,172.54,150416,,,A*62
$GPGGA,233303.727,1723.5982,S,06608.8161,W,1,04,4.2,2602.4,M,28.8,M,,0000*66
$GPGSA,A,3,03,09,23,16,,,,,,,,,6.0,4.2,4.2*38
